primary_type,subtype,lat,lon,leisure,name,amenity,landuse,sport,building
leisure,park,39.90973,116.4273069,park,建国门健身乐园,,,,
leisure,park,39.9162723,116.435135,park,日坛公园,,,,
leisure,park,39.9245453,116.3988513,garden,,,,,
leisure,park,39.8867464,116.4060342,park,天坛公园,,,,
leisure,park,39.9499822,116.4066208,park,地坛公园,,,,
leisure,park,39.8684505,116.3481937,park,大观园,,,,
leisure,park,40.0119641,116.2816412,park,圆明园遗址公园,,,,
leisure,park,39.9109972,116.387317,,社稷坛,place_of_worship,,,
leisure,park,39.9111623,116.3923487,,太庙,,,,
leisure,park,40.0344465,116.3034392,park,上地公园,,,,
leisure,park,40.030656,116.3063538,park,,,,,
leisure,park,40.0520009,116.2905648,garden,中关村软件园,,commercial,,
leisure,park,39.9404077,116.3758658,park,后海公园,,,,
leisure,park,39.7959643,116.4947882,park,博大公园,,,,
leisure,park,39.8104039,116.4782637,park,亦庄企业文化园,,,,
leisure,park,39.9860577,116.3816742,park,中华民族园,,,,
leisure,park,39.9808909,116.3841445,park,中华民族园,,,,
leisure,park,39.9221658,116.3929945,park,景山公园,,,,
leisure,park,39.917692,116.3211119,park,玉渊潭公园,,,,
leisure,park,39.9944408,116.2573193,park,颐和园,,,,
leisure,park,39.9444274,116.3119439,park,紫竹院公园,,,,
leisure,park,39.9661813,116.3672874,park,双秀公园,,,,
leisure,park,39.8701623,116.3690674,park,陶然亭公园,,,,
leisure,park,39.919757,116.3898342,garden,御花园,,,,
leisure,park,39.9046614,116.4100672,park,东单公园,,,,
leisure,park,39.9169989,116.3874204,garden,慈宁宫花园,,,,
leisure,park,39.8947639,116.3513794,park,宣武艺园,,,,
leisure,park,39.9699077,116.4497073,park,太阳宫公园,,,,
leisure,park,39.9204425,116.6662192,park,运河文化广场,,,,
leisure,park,40.0003534,116.3115357,park,绿园,,forest,,
leisure,park,40.0009234,116.3159442,park,,,forest,,
leisure,park,39.9912597,116.2936281,park,畅春新园体育休闲广场,,,,
leisure,park,39.9935667,116.2993219,garden,,,,,
leisure,park,40.0690082,116.4532836,park,温榆河公园朝阳示范区,,,,
leisure,park,39.8787944,116.438842,park,龙潭公园,,,,
leisure,park,39.8790693,116.4282562,park,龙潭中湖公园,,,,
leisure,park,39.8766388,116.4224651,,,,,,
leisure,park,40.021134,116.3774421,park,奥林匹克森林公园,,,,
leisure,park,39.8750173,116.4841171,park,窑洼公园,,,,
leisure,park,39.8938491,116.3064043,park,莲花池公园,,,,
leisure,park,39.9336187,116.3538869,park,官园公园,,,,
leisure,park,39.9422643,116.4431592,park,,,,,
leisure,park,39.9529945,116.3786714,park,人定湖公园,,,,
leisure,park,39.857194,116.5004254,park,翠城公园,,,,
leisure,park,39.9602972,116.3991499,park,柳荫公园,,,,
leisure,park,39.9524618,116.3941191,park,青年湖公园,,,,
leisure,park,40.0337863,116.4002434,park,景藏健康公园,,,,
leisure,park,40.0135676,116.3275759,park,东升八家郊野公园南区,,,,
leisure,park,40.0215061,116.3322602,park,东升八家郊野公园东区,,,,
leisure,park,39.9794793,116.4548619,park,南湖公园,,,,
leisure,park,39.9058361,116.230482,park,北京国际雕塑公园,,,,
leisure,park,39.913818,116.247234,park,阳光星期八公园,,,,
leisure,park,39.9031139,116.1976107,park,首钢松林公园,,,,
leisure,park,39.8126468,116.3453008,park,海子公园,,,,
leisure,park,39.7014843,116.3158292,park,念坛公园,,,,
leisure,park,39.8791759,116.3603644,park,万寿公园,,,,
leisure,park,40.0267769,116.4426688,park,朝来森林公园,,,,
leisure,park,39.9414514,116.4207957,park,南馆公园,,,,
leisure,park,39.8370476,116.2877034,park,丰台科技园生态主题公园,,,,
leisure,park,39.9199101,116.3879169,garden,建福宫花园,,,,
leisure,park,39.9206283,116.3933233,garden,宁寿宫花园,,,,
leisure,park,39.8622199,116.3065682,park,丰益花园,,,,
leisure,park,39.9163904,116.2235477,park,老山城市休闲公园,,,,
leisure,park,39.8324754,116.4183158,park,石榴庄公园1号园,,,,
leisure,park,39.8317258,116.4094426,park,石榴庄公园2号园,,,,
leisure,park,39.8266371,116.4768621,park,镇海公园,,,,
leisure,park,39.9087347,116.5239547,park,兴隆公园,,,,
leisure,park,39.8102725,116.2023364,park,房车世界露营公园,,,,
leisure,park,40.0210195,116.4508302,park,,,,,
leisure,park,40.0761015,116.3334336,park,回龙观体育公园,,,,
leisure,park,40.0797139,116.3181091,park,回龙园,,,,
leisure,park,39.8449431,116.567516,park,郎各庄村休闲公园,,,,
leisure,park,39.8375524,116.4962607,park,海棠公园,,,,
leisure,park,39.8245841,116.5079981,park,老君堂公园,,,,
leisure,park,39.8474541,116.525132,park,北焦公园,,,,
leisure,park,39.9927572,116.4870792,park,大望京公园,,,,
leisure,park,39.8828902,116.6038378,park,暖山郊野公园,,,,
leisure,park,39.8480001,116.2175044,park,中国人民抗日战争纪念雕塑园,,,,
leisure,park,39.9918943,116.3972793,park,北辰中心花园,,,,
leisure,park,40.0047122,116.3182818,park,北院,,,,
leisure,park,40.0022563,116.3246441,park,灵璧石广场,,recreation_ground,,
leisure,park,40.0003092,116.3145227,park,近春园,,,,
leisure,park,39.9986787,116.312846,park,,,,,
leisure,park,40.0062465,116.3193286,garden,,,,,
leisure,park,39.9829827,116.3390162,park,绿园,,,,
leisure,park,39.8997032,116.4135713,park,明城墙遗址公园,,,,
leisure,park,39.8999684,116.3513172,park,西便门公园,,,,
leisure,park,40.0023356,116.3152854,park,,,forest,,
leisure,park,39.916252,116.2698341,park,五棵松奥林匹克文化公园,,,,
leisure,park,39.861238,116.2775879,park,丰台花园,,,,
leisure,park,39.9068104,116.2687164,park,五棵松公园,,,,
leisure,park,39.9128614,116.2698988,park,五棵松奥林匹克文化公园,,,,
leisure,park,39.9596177,116.3144205,park,,,,,
leisure,park,39.9628034,116.3165227,park,,,,,
leisure,park,39.9587554,116.3143961,park,中心花园,,,,
leisure,park,39.9610295,116.3167969,park,,,,,
leisure,park,39.9602562,116.3169129,park,,,,,
leisure,park,39.9640659,116.3161432,park,,,,,
leisure,park,39.961008,116.3168219,park,,,,,
leisure,park,39.9582816,116.3158538,park,,,,,
leisure,park,39.9588731,116.3157684,park,,,,,
leisure,park,39.9737256,116.4682778,park,四得公园,,,,
leisure,park,39.8717928,116.6747293,park,梨园主题公园,,,,
leisure,park,40.0593127,116.4151776,park,天通苑街心花园,,,,
leisure,park,39.7708875,116.2189624,park,,,,,
leisure,park,39.8679455,116.24161,park,小屯公园,,,,
leisure,park,39.9387922,116.4617427,park,全国农业展览馆;中国农业博物馆,,,,
leisure,park,39.9454845,116.429109,park,,,,,
leisure,park,40.0003996,116.3383804,park,,,,,
leisure,park,39.9727902,116.2905694,park,,,,,
leisure,park,39.9721807,116.2930907,park,,,,,
leisure,park,39.9721747,116.29267,park,,,,,
leisure,park,39.9726186,116.2932629,park,万泉新新家园网球场,,,tennis,
leisure,park,39.9153713,116.4485283,park,CBD历史文化公园,,,,
leisure,park,39.7787057,116.3232482,park,地铁文化公园,,,,
leisure,park,39.9716402,116.2927698,park,,,,,
leisure,park,39.9707888,116.2925826,park,,,,,
leisure,park,39.924945,116.2393581,park,,,,,
leisure,park,40.0651204,116.0973807,garden,国际梅园,,,,
leisure,park,40.0636541,116.0952001,garden,国际梅园,,,,
leisure,park,40.064256,116.0988687,park,公园门区,,,,
leisure,park,40.0614844,116.0904376,garden,休息区,,,,
leisure,park,39.97645,116.2296114,park,永泰·自在香山公园,,,,
leisure,park,39.8675922,116.505722,park,,,,,
leisure,park,39.948717,116.4103549,park,,,,,
leisure,park,39.9682655,116.3080485,park,教二草坪,,,,
leisure,park,39.9237783,116.248334,park,阜石路南侧绿地公园,,,,
leisure,park,39.9862051,116.2858785,park,海淀公园,,,,
leisure,park,39.8938523,116.4309275,park,袁崇焕墓和祠,,,,
leisure,park,40.0566047,116.3929259,park,太平郊野公园,,,,
leisure,park,40.1112946,116.3668817,park,宏福公园,,,,
leisure,park,40.0514955,116.3810655,park,东小口森林公园,,,,
leisure,park,40.087507,116.3793622,park,半塔郊野公园,,,,
leisure,park,40.0648932,116.4074985,park,,,,,
leisure,park,39.8236339,116.4693897,park,鸿博公园,,,,
leisure,park,40.0486282,116.406193,park,立水桥公园东区,,,,
leisure,park,39.8896205,116.649758,park,,,,,
leisure,park,39.8904495,116.6459404,park,,,,,
leisure,park,39.9842794,116.4659923,garden,,,,,
leisure,park,39.9841191,116.4660058,garden,,,,,
leisure,park,39.9838717,116.4660327,garden,,,,,
leisure,park,39.8897519,116.6514329,park,畅春园,,,,
leisure,park,39.8656443,116.3036836,park,,,,,
leisure,park,39.8972755,116.6064943,park,东1时区公园,,,,
leisure,park,40.0051758,116.2012702,garden,宿根花卉园,,,,
leisure,park,40.0049481,116.199904,garden,木兰园,,,,
leisure,park,40.0091757,116.3185036,garden,,,,,
leisure,park,40.0077907,116.3265328,garden,世纪林,,,,
leisure,park,40.0087052,116.3257404,garden,紫荆雕塑园,,,,
leisure,park,40.0017708,116.3134303,park,牡丹园,,,,
leisure,park,39.9977834,116.3268033,park,,,,,
leisure,park,40.0043848,116.3206108,garden,,,,,
leisure,park,39.999019,116.2969117,park,东北义园,,,,
leisure,park,40.0085153,116.320978,park,,,,,
leisure,park,39.9003166,116.4311151,park,大通滨河公园南区,,,,
leisure,park,39.8496473,116.7551793,park,大运河森林公园,,,,
leisure,park,40.0386717,116.3689104,park,东升文体公园,,,,
leisure,park,40.0714872,116.4280252,park,天通艺苑,,,,
leisure,park,40.0508334,116.4024322,park,立水桥公园西区,,,,
leisure,park,40.0470413,116.4039123,park,,,,,
leisure,park,40.0584893,116.4399499,park,清河营郊野公园,,,,
leisure,park,40.0795095,116.3327726,park,回龙观法治主题公园,,,,
leisure,park,39.9751473,116.3649349,park,元大都城垣遗址公园,,,,
leisure,park,39.9421724,116.3369976,park,,,,,
leisure,park,39.9741416,116.4186681,park,元大都城垣遗址公园,,,,
leisure,park,39.9447214,116.3557193,park,,,,,
leisure,park,39.9738737,116.3952821,park,元大都城垣遗址公园,,,,
leisure,park,39.9740373,116.3728737,park,马甸公园,,,,
leisure,park,39.9499921,116.3498874,park,,,,,
leisure,park,39.973702,116.3593642,park,元大都城垣遗址公园,,,,
leisure,park,39.9744605,116.3479187,park,元大都城垣遗址公园,,,,
leisure,park,40.0148465,116.4059934,park,仰山公园,,,,
leisure,park,40.0288591,116.4390009,park,,,,,
leisure,park,40.0378502,116.4359156,park,勇士营郊野公园,,,,
leisure,park,40.0072865,116.4252731,park,黄草湾郊野公园,,,,
leisure,park,40.0030787,116.3985212,park,,,,,
leisure,park,39.9853042,116.4264937,park,,,,,
leisure,park,39.9913131,116.4069487,park,亚运村全民健身园,,,,
leisure,park,40.0031609,116.3972177,park,,,,,
leisure,park,39.9964903,116.4220656,park,华汇紫薇公园,,,,
leisure,park,39.9958338,116.4018268,park,大屯文化广场,,,,
leisure,park,40.0418462,116.4179187,park,,,,,
leisure,park,39.9097982,116.3478226,park,南礼士路公园,,,,
leisure,park,39.9468008,116.3672789,park,,,,,
leisure,park,39.9488655,116.3819074,park,北滨河公园,,,,
leisure,park,39.9136048,116.3444755,park,月坛公园,,,,
leisure,park,39.9703672,116.375756,park,玫瑰园,,,,
leisure,park,40.029159,116.4079679,park,北辰绿色中央公园,,,,
leisure,park,40.015467,116.4124846,park,,,,,
leisure,park,40.0178892,116.4170435,park,,,,,
leisure,park,40.0148712,116.4111435,park,,,,,
leisure,park,40.0589716,116.4274149,park,润泽公园,,,,
leisure,park,39.9799361,116.4392743,park,太阳宫体育休闲公园,,,,
leisure,park,39.9847287,116.4387812,park,太阳宫公园,,,,
leisure,park,40.0120511,116.4494486,park,望湖公园,,,,
leisure,park,39.9922383,116.4452482,park,桐城公园,,,,
leisure,park,39.9956244,116.4943777,park,望京公园,,,,
leisure,park,39.9929941,116.4450894,park,望承公园,,,,
leisure,park,39.9794633,116.4541392,park,南湖体育公园,,,,
leisure,park,39.9967627,116.4444135,park,望和公园北园,,,,
leisure,park,39.9043136,116.4572409,park,中航工业花园,,,,
leisure,park,39.9058987,116.4582676,park,,,,,
leisure,park,39.9059041,116.4581991,park,,,,,
leisure,park,39.9504196,116.4718257,park,朝阳公园,,,,
leisure,park,39.9209606,116.4717828,park,,,,,
leisure,park,39.9391919,116.4843302,park,,,,,
leisure,park,39.9333264,116.4842926,park,,,,,
leisure,park,39.9302066,116.4819694,park,,,,,
leisure,park,39.922557,116.4565585,park,团结湖公园,,,,
leisure,park,40.0131543,116.5429277,park,,,,,
leisure,park,40.0048705,116.5522607,park,郁金香温泉花园度假村,,,,
leisure,park,39.9100901,116.4849898,park,,,,,
leisure,park,39.9122814,116.4494905,park,,,,,
leisure,park,40.1148518,116.3558791,park,,,,,
leisure,park,40.1136332,116.3535861,park,白各庄新村公园,,,,
leisure,park,39.9374975,116.5691526,park,常营公园,,,,
leisure,park,39.9338162,116.4855912,park,,,,,
leisure,park,39.9335612,116.4900729,park,,,,,
leisure,park,39.936576,116.4924306,park,,,,,
leisure,park,39.9340712,116.4924788,park,,,,,
leisure,park,39.9247558,116.4686875,park,,,,,
leisure,park,39.9479431,116.4386248,park,左家庄科普廉政文化公园,,,,
leisure,park,39.9271299,116.4842964,park,红领巾公园,,,,
leisure,park,39.927298,116.4815623,park,健一公馆,,,,
leisure,park,39.9312139,116.353125,park,中国儿童中心,,,,
leisure,park,39.7681016,116.4987711,park,X10地块口袋公园,,,,
leisure,park,39.8405222,116.3879318,park,建欣苑公园,,,,
leisure,park,39.7710098,116.5109004,park,,,,,
leisure,park,39.7725249,116.5113264,park,,,,,
leisure,park,39.8318295,116.3956008,park,,,,,
leisure,park,39.8451785,116.3948459,park,福海公园,,,,
leisure,park,39.8443541,116.3939762,park,,,,,
leisure,park,39.7763424,116.4990633,park,,,,,
leisure,park,39.7749347,116.498374,park,,,,,
leisure,park,39.763158,116.4936827,park,,,,,
leisure,park,39.7621523,116.4979114,park,,,,,
leisure,park,39.7702624,116.5088681,park,,,,,
leisure,park,39.7655677,116.507826,park,,,,,
leisure,park,39.7626874,116.5063436,park,,,,,
leisure,park,39.782242,116.4850489,park,,,,,
leisure,park,39.7830368,116.4866712,park,,,,,
leisure,park,39.7977741,116.4715504,park,,,,,
leisure,park,39.7853574,116.4915753,park,,,,,
leisure,park,39.7949961,116.4833943,park,海棠公园,,,,
leisure,park,39.8063667,116.4981845,park,,,,,
leisure,park,39.7969578,116.4852006,park,,,,,
leisure,park,39.8571441,116.4395154,park,,,,,
leisure,park,39.8320857,116.4414363,park,,,,,
leisure,park,39.8151899,116.4418287,park,宣颐公园,,,,
leisure,park,39.7829088,116.4853567,park,,,,,
leisure,park,39.7659362,116.5218524,park,,,,,
leisure,park,39.7738259,116.511878,park,,,,,
leisure,park,39.7838223,116.4968157,park,,,,,
leisure,park,39.7740526,116.5113293,park,,,,,
leisure,park,39.7643587,116.536229,park,,,,,
leisure,park,39.7621219,116.4946465,park,,,,,
leisure,park,39.9890265,116.3081291,garden,,,,,
leisure,park,39.9897862,116.3089136,garden,,,,,
leisure,park,39.8988146,116.7015461,park,运河生态公园,,,,
leisure,park,39.8959419,116.6978607,park,,,,,
leisure,park,39.8503374,116.4809149,park,,,,,
leisure,park,39.8499412,116.4782867,park,和谐广场,,,,
leisure,park,39.855182,116.4789684,park,,,,,
leisure,park,39.7629647,116.2961928,park,,,,,
leisure,park,39.7779429,116.4521188,park,麋鹿苑,,,,
leisure,park,39.896566,116.551933,park,百花公园东区,,,,
leisure,park,39.8944538,116.5474328,park,百花公园西区,,,,
leisure,park,39.7698917,116.5103847,park,,,,,
leisure,park,39.7611124,116.4975135,park,,,,,
leisure,park,39.7617881,116.5167996,park,,,,,
leisure,park,39.7623225,116.5075811,park,,,,,
leisure,park,39.7586895,116.5111742,park,,,,,
leisure,park,39.7601142,116.5016906,park,,,,,
leisure,park,39.764768,116.5081753,park,,,,,
leisure,park,39.8144579,116.4235985,park,旺兴湖郊野公园南区,,,,
leisure,park,39.8103555,116.4268081,park,碧海公园,,,,
leisure,park,39.8049707,116.4950011,park,,,,,
leisure,park,39.8670103,116.4247268,park,,,,,
leisure,park,39.985861,116.3749832,park,,,,,
leisure,park,40.0053236,116.4111815,park,如苑公园,,,,
leisure,park,39.9702759,116.3309367,garden,京仪科技大厦B座三层,,,,
leisure,park,39.7884514,116.342762,park,明珠广场,,,,
leisure,park,40.1072105,116.6638559,park,仁和公园,,,,
leisure,park,39.7762018,116.5651101,park,,,,,
leisure,park,39.7720205,116.5664597,park,,,,,
leisure,park,39.7722016,116.5705153,park,,,,,
leisure,park,39.7723897,116.5611353,park,,,,,
leisure,park,39.7786749,116.5628057,park,,,,,
leisure,park,39.763985,116.5359481,park,,,,,
leisure,park,39.7460635,116.5134876,park,,,,,
leisure,park,39.8070617,116.4927566,park,,,,,
leisure,park,39.805484,116.4922717,park,,,,,
leisure,park,39.8041382,116.493391,park,,,,,
leisure,park,39.8070482,116.4892794,park,,,,,
leisure,park,39.8360647,116.5855338,park,,,,,
leisure,park,39.801994,116.5596813,park,,,,,
leisure,park,39.7998125,116.5573037,park,,,,,
leisure,park,39.778201,116.5617752,park,,,,,
leisure,park,39.8042405,116.5612518,park,,,,,
leisure,park,39.7913465,116.5404843,park,,,,,
leisure,park,39.7428049,116.52705,park,,,,,
leisure,park,39.7414685,116.5132006,park,,,,,
leisure,park,39.7497113,116.5329546,park,,,,,
leisure,park,39.7960145,116.557246,park,,,,,
leisure,park,39.7915932,116.5409941,park,,,,,
leisure,park,39.7541617,116.533126,park,,,,,
leisure,park,39.754882,116.5245006,park,,,,,
leisure,park,39.9762955,116.4643033,garden,花家地公园,,,,
leisure,park,39.9747913,116.4734002,park,丽都公园,,,,
leisure,park,39.9798034,116.4597604,garden,,,,,
leisure,park,39.9790191,116.4598715,garden,,,,,
leisure,park,39.9846146,116.3443985,park,,,,,
leisure,park,39.9791483,116.3383189,park,,,,,
leisure,park,39.7536769,116.5159316,park,,,,,
leisure,park,39.7538891,116.5240157,park,,,,,
leisure,park,39.7615981,116.5388533,park,,,,,
leisure,park,39.7546692,116.5212348,park,,,,,
leisure,park,39.7753678,116.3447837,park,星光生态文化休闲公园,,,,
leisure,park,39.9367754,116.3787872,park,恭王府花园,,,,
leisure,park,40.001265,116.2793042,park,,,,,
leisure,park,40.0167568,116.287182,park,,,,,
leisure,park,39.8304139,116.4773551,park,镇海寺郊野公园,,,,
leisure,park,39.9501662,116.3366134,park,芳华园,,,,
leisure,park,39.950904,116.3331998,park,网球场,,,,
leisure,park,39.9508709,116.3328859,park,排球场,,,,
leisure,park,39.9769903,116.3172346,park,,,,,
leisure,park,40.1136881,116.6588238,garden,,,,,
leisure,park,39.9023765,116.4559879,park,庆丰公园,,,,
leisure,park,39.9455856,116.5152639,park,姚家园公园,,,,
leisure,park,39.9439663,116.5257242,park,京城体育休闲公园,,,,
leisure,park,39.9281332,116.5202338,park,星河湾四季会公园,,,,
leisure,park,39.8801834,116.5224447,park,古塔公园,,,,
leisure,park,39.8594228,116.1984442,park,晓月郊野公园,,,,
leisure,park,39.8608392,116.2028225,park,野花组合,,,,
leisure,park,39.9377264,116.4652931,garden,,,,,
leisure,park,39.9587206,116.3179303,park,,,,,
leisure,park,39.8731599,116.2971698,park,西局玉璞园-西区,,,,
leisure,park,39.8729998,116.2976367,park,西局玉璞园-东区,,,,
leisure,park,39.8918831,116.1036491,park,石门营文化公园,,,,
leisure,park,39.9839193,116.5078977,park,,,,,
leisure,park,39.8169271,116.5210129,park,,,,,
leisure,park,39.8177262,116.4428921,park,旺兴湖郊野公园北区,,,,
leisure,park,39.7822414,116.4676155,park,南海子公园,,,,
leisure,park,39.7542963,116.4447099,park,兴海公园,,,,
leisure,park,39.7961561,116.4605624,park,,,,,
leisure,park,39.8115043,116.5455594,park,,,,,
leisure,park,39.7471603,116.4899191,park,,,,,
leisure,park,39.7474663,116.4898779,park,,,,,
leisure,park,39.7401556,116.4900405,park,,,,,
leisure,park,39.7554496,116.4846932,park,,,,,
leisure,park,39.7497681,116.4934736,park,,,,,
leisure,park,39.7542763,116.4837848,park,X86体育公园,,,,
leisure,park,39.7506196,116.4935696,park,,,,,
leisure,park,39.7632699,116.4809724,park,,,,,
leisure,park,39.7614569,116.4867843,park,,,,,
leisure,park,39.7493393,116.4998019,park,,,,,
leisure,park,39.761112,116.4756026,park,,,,,
leisure,park,39.751913,116.4762685,park,,,,,
leisure,park,39.7542003,116.5022782,park,,,,,
leisure,park,39.7546137,116.5025441,park,,,,,
leisure,park,39.7577249,116.4764755,park,,,,,
leisure,park,39.7587377,116.48149,park,,,,,
leisure,park,39.7506465,116.4933039,park,,,,,
leisure,park,39.7635116,116.4911386,park,,,,,
leisure,park,39.8065784,116.4501482,park,,,,,
leisure,park,39.9884664,116.1968084,park,香山红色大本营,,,,
leisure,park,39.980062,116.2051901,garden,,,,,
leisure,park,39.7898399,116.1402962,park,北京南宫旅游景区,,,,
leisure,park,39.8054628,116.1490791,park,南宫休闲广场,,,,
leisure,park,39.9666856,116.35269,park,北京电影学院绿地,,,,
leisure,park,39.9667112,116.3549041,park,北京电影学院绿地,,,,
leisure,park,39.9667117,116.3555481,park,北京电影学院绿地,,,,
leisure,park,39.9668576,116.3574163,park,北京电影学院绿地,,,,
leisure,park,39.9919724,116.4689897,park,望京伯爵城中央公园（北京文化创业产业园）,,,,
leisure,park,39.947656,116.2822848,park,四季曙光公园,,,,
leisure,park,39.9532547,116.2874486,park,,,,,
leisure,park,39.8558205,116.3664563,park,万芳亭公园,,,,
leisure,park,39.9114447,116.1929828,park,石景山雕塑公园,,,,
leisure,park,40.1178843,116.6520042,park,三山园,,,,
leisure,park,40.1164751,116.646451,park,怡园公园,,,,
leisure,park,40.0057662,116.4498638,park,北小河公园,,,,
leisure,park,39.9085098,116.4419852,park,,,,,
leisure,park,39.9991581,116.2752823,garden,谐趣园,,,,
leisure,park,39.9256704,116.4288232,park,,,,,
leisure,park,39.9255372,116.4400009,park,Walking and Exercise Park,,,,
leisure,park,39.9339586,116.4456353,park,Community Exercise Area,,,,
leisure,park,39.932622,116.4494421,park,,,,,
leisure,park,40.0535567,116.4274222,park,,,,,
leisure,park,39.9321958,116.4364448,park,,,,,
leisure,park,39.9292026,116.4527335,park,,,,,
leisure,park,39.9419205,116.4278403,park,,,,,
leisure,park,39.9476563,116.410103,park,北二环城市公园,,,,
leisure,park,39.9724309,116.4052365,park,,,,,
leisure,park,39.9393313,116.4095449,park,北新桥街心公园,,,,
leisure,park,39.9272239,116.4491308,park,,,,,
leisure,park,39.9537233,116.4724818,park,枫花园,,,,
leisure,park,39.9277672,116.4647272,park,,,,,
leisure,park,39.9322449,116.4438167,park,,,,,
leisure,park,39.9260466,116.4400631,park,,,,,
leisure,park,39.9391553,116.4283518,park,,,,,
leisure,park,39.9245008,116.463915,park,Exercise Machines,,,,
leisure,park,39.9450048,116.4490902,park,,,,,
leisure,park,39.9289457,116.4286794,park,,,,,
leisure,park,39.9302559,116.4283372,park,,,,,
leisure,park,39.7754572,116.3447766,park,,,,,
leisure,park,39.7367526,116.5356206,park,,,,,
leisure,park,39.7944507,116.5708984,park,,,,,
leisure,park,39.7904903,116.5710682,park,,,,,
leisure,park,39.786701,116.5780371,park,,,,,
leisure,park,39.783956,116.5805881,park,,,,,
leisure,park,39.7891992,116.5757519,park,,,,,
leisure,park,39.7810762,116.5832312,park,,,,,
leisure,park,39.7789613,116.5852091,park,,,,,
leisure,park,39.7745895,116.5663994,park,,,,,
leisure,park,39.7807463,116.5594526,park,,,,,
leisure,park,39.7888296,116.5670448,park,,,,,
leisure,park,39.8240947,116.4148494,park,,,,,
leisure,park,39.8082778,116.4238771,park,,,,,
leisure,park,39.8187892,116.4181256,park,,,,,
leisure,park,39.8066007,116.4260405,park,五福堂公园-北一区,,,,
leisure,park,39.8211779,116.5124768,park,,,,,
leisure,park,40.0060528,116.4818594,park,,,,,
leisure,park,40.0087082,116.476477,park,,,,,
leisure,park,39.7964955,116.4108846,garden,六营门小区花园,,,,
leisure,park,39.7441598,116.3979662,park,,,,,
leisure,park,39.7382314,116.3939057,park,,,,,
leisure,park,39.7910232,116.5703949,park,,,,,
leisure,park,39.7589104,116.5386341,park,米拉公园,,,,
leisure,park,39.9626084,116.313615,garden,中心庭院,,,,
leisure,park,39.7908165,116.423352,park,,,,,
leisure,park,39.796895,116.4247086,park,五福堂公园,,,,
leisure,park,39.8220392,116.2812103,park,水池雕像,,,,
leisure,park,39.9454593,116.2780339,park,曙光防灾教育公园,,,,
leisure,park,40.1343563,116.2880534,park,新城滨河森林公园,,,,
leisure,park,39.9951495,116.3535084,park,青年园,,,,
leisure,park,39.9688289,116.4000834,park,安贞涌溪公园,,,,
leisure,park,39.7711513,116.33432,park,高米店公园,,,,
leisure,park,39.7568936,116.3346667,park,康庄公园,,,,
leisure,park,39.7617003,116.3293128,park,金星公园,,,,
leisure,park,39.7615378,116.3342142,park,,,,,
leisure,park,39.7486988,116.3023388,park,兴旺公园,,,,
leisure,park,39.933267,116.5373612,park,京城梨园,,,,
leisure,park,39.7282788,116.3317784,park,街心公园,,,,
leisure,park,40.1744783,116.3896374,park,小汤山文化广场,,,,
leisure,park,40.0825316,116.332361,park,回龙园东区公园,,,,
leisure,park,39.9212142,116.3807025,park,北海公园,,,,
leisure,park,39.9221391,116.1544209,park,首钢工业遗址公园,,,,
leisure,park,39.9058395,116.1760694,park,,,,,
leisure,park,39.9346392,116.4033649,park,文天祥祠,,,,
leisure,park,40.0426098,116.2715475,park,绿地,,,,
leisure,park,40.1379304,116.6346268,park,卧龙公园,,,,
leisure,park,39.9827051,116.329143,park,,,,,
leisure,park,39.9843716,116.3273798,park,,,,,
leisure,park,39.9832293,116.3306517,park,,,,,
leisure,park,39.9822238,116.3303854,park,,,,,
leisure,park,39.9788098,116.3298811,park,,,,,
leisure,park,39.979386,116.3288633,park,,,,,
leisure,park,40.0598634,116.2679453,park,中关村森林公园,,,,
leisure,park,40.1305638,116.3225805,park,,,,,
leisure,park,40.1197519,116.3505949,park,,,,,
leisure,park,40.128859,116.4512284,park,未来科学城滨水公园,,,,
leisure,park,40.013596,116.3180863,park,荷清园,,,,
leisure,park,39.9842021,116.3287193,park,世纪科贸大厦,,,,
leisure,park,39.9928568,116.385992,park,,,,,
leisure,park,39.9185536,116.303659,park,中塔公园,,,,
leisure,park,39.9159451,116.2991853,park,,,,,
leisure,park,39.9180563,116.2979764,park,中塔公园,,,,
leisure,park,39.7412283,116.3271098,park,黄村公园,,,,
leisure,park,39.7926315,116.5001511,park,,,,,
leisure,park,39.7812249,116.5604645,park,,,,,
leisure,park,39.9696333,116.3180443,park,双榆树公园,,,,
leisure,park,39.9827657,116.3705014,park,北极寺公园,,,,
leisure,park,40.0887833,116.3017718,park,,,,,
leisure,park,39.9970211,116.2555855,park,功德寺公园,,,,
leisure,park,39.9526509,116.3391792,park,,,,,
leisure,park,39.9525966,116.3388496,park,,,,,
leisure,park,39.9522919,116.3389327,park,,,,,
leisure,park,39.9523415,116.339207,park,,,,,
leisure,park,39.9521861,116.3388659,park,,,,,
leisure,park,39.9519627,116.3396194,park,,,,,
leisure,park,39.9525467,116.3394262,park,,,,,
leisure,park,40.1242263,116.472281,park,,,,,
leisure,park,40.1259195,116.4630884,park,,,,,
leisure,park,40.1289301,116.4583356,park,,,,,
leisure,park,40.1371572,116.4539471,park,,,,,
leisure,park,39.7891668,116.3263547,park,兴海公园,,,,
leisure,park,39.7684,116.3163954,park,滨河公园,,,,
leisure,park,39.767283,116.3123185,park,翡翠公园,,,,
leisure,park,39.9463845,116.3417453,garden,,,,,
leisure,park,39.9470645,116.3838663,park,德胜公园,,,,
leisure,park,39.9002234,116.341809,park,,,,,
leisure,park,40.0525626,116.1748587,park,,,,,
leisure,park,40.0524764,116.1752958,park,,,,,
leisure,park,39.9566093,116.3475191,park,元大都公园明光村小区处,,,,
leisure,park,39.9730832,116.5038299,park,将府公园,,,,
leisure,park,39.9896756,116.3410709,park,冬日广场,,,,
leisure,park,39.990641,116.3441415,park,小花园,,,,
leisure,park,39.9908724,116.3406645,park,新生代广场,,,,
leisure,park,39.9911441,116.3448064,park,花园,,,,
leisure,park,40.1566235,116.2652434,park,蓝园,,,,
leisure,park,40.0455701,116.6058855,park,西湖园,,,,
leisure,park,39.9340939,116.5181899,park,京城森林公园西区,,,,
leisure,park,40.0621894,116.3317151,park,南店公园,,,,
leisure,park,39.9559506,116.5632248,park,东坝郊野公园,,,,
leisure,park,39.9268185,116.5976039,park,常营公园保利园,,,,
leisure,park,39.7627995,116.1701922,park,长阳公园,,,,
leisure,park,40.0927213,116.4193937,park,中直绿化基地,,,,
leisure,park,40.0034279,116.3124458,garden,,,,,
leisure,park,39.9912754,116.3373524,park,小花园,,,,
leisure,park,40.0286678,116.3129287,park,,,,,
leisure,park,39.8379185,116.3466748,park,世界花卉大观园,,,,
leisure,park,39.8283734,116.3502037,park,槐新公园,,,,
leisure,park,40.0428606,116.252694,park,百旺公园,,,,
leisure,park,39.7837494,116.4882215,park,,,,,
leisure,park,39.9625646,116.2712243,park,融乐公园,,,,
leisure,park,39.8692554,116.3919288,park,,,,,
leisure,park,40.0042259,116.4822368,park,电子城西区科技广场,,,,
leisure,park,40.0704931,116.5320811,park,,,,,
leisure,park,40.0692213,116.5283415,park,,,,,
leisure,park,40.0698391,116.5480955,park,,,,,
leisure,park,40.0698143,116.5321235,park,,,,,
leisure,park,40.0651445,116.5471862,park,,,,,
leisure,park,40.0960434,116.5250269,park,,,,,
leisure,park,40.0941045,116.5185134,park,,,,,
leisure,park,40.0870882,116.5127264,park,,,,,
leisure,park,40.0721241,116.5132702,park,,,,,
leisure,park,40.0721678,116.5189923,park,,,,,
leisure,park,39.9909591,116.6055375,park,,,,,
leisure,park,39.8700024,116.3941788,park,,,,,
leisure,park,39.8698213,116.3907644,park,,,,,
leisure,park,40.0709798,116.5357824,park,,,,,
leisure,park,40.0684733,116.5381922,park,,,,,
leisure,park,39.8207412,116.3793549,park,和义公园西区,,,,
leisure,park,39.8183516,116.399438,park,,,,,
leisure,park,39.8180591,116.3889657,park,和义公园东区,,,,
leisure,park,39.9485016,116.2697243,park,,,,,
leisure,park,39.9432003,116.2490176,park,,,,,
leisure,park,39.9531808,116.4484296,park,,,,,
leisure,park,39.9499746,116.3547318,park,,,,,
leisure,park,40.1231837,116.2729126,park,,,,,
leisure,park,40.0980919,116.3062732,park,,,,,
leisure,park,39.93562,116.2981142,park,,,,,
leisure,park,39.9307197,116.2888847,park,玲珑公园,,,,
leisure,park,39.935499,116.1092266,park,永定河文化广场,,,,
leisure,park,39.905795,116.4876734,garden,,,,,
leisure,park,39.9062614,116.488854,garden,,,,,
leisure,park,39.9063643,116.4905867,garden,,,,,
leisure,park,39.9063928,116.4911984,garden,,,,,
leisure,park,39.9064073,116.4919437,garden,,,,,
leisure,park,39.9064198,116.4926199,garden,,,,,
leisure,park,39.7805875,116.4712132,park,南海子郊野公园-动感乐园区,,,,
leisure,park,39.9052294,116.2088242,park,,,,,
leisure,park,39.9801053,116.2367642,park,影湖楼公园（原玉泉郊野公园）,,,,
leisure,park,39.9697996,116.3043603,park,百家园,,grass,,
leisure,park,39.7334931,116.1602688,park,良乡烈士陵园,,,,
leisure,park,39.8705669,116.3592271,park,,,,,
leisure,park,39.9017325,116.3836039,park,,,grass,,
leisure,park,39.9017912,116.3836391,park,,,grass,,
leisure,park,39.9017839,116.3833451,park,,,grass,,
leisure,park,39.90203,116.3836274,park,,,grass,,
leisure,park,39.9020319,116.3835623,park,,,grass,,
leisure,park,39.9685017,116.3111876,park,求是园,,,,
leisure,park,39.9490625,116.3336133,park,积秀园,,,,
leisure,park,40.1108568,116.347175,park,,,,,
leisure,park,39.9891962,116.3013717,garden,燕南园,,,,
leisure,park,39.9681471,116.4699989,park,石林广场,,,,
leisure,park,39.9726425,116.4627953,park,,,,,
leisure,park,39.9369024,116.3366077,park,,,,,
leisure,park,39.9771991,116.4748446,park,,,,,
leisure,park,40.0774886,116.2281485,park,,,,,
leisure,park,39.8924987,116.1019272,park,门头沟幸福广场,,,,
leisure,park,39.892426,116.5640245,park,杜仲公园,,,,
leisure,park,40.1003965,116.1346163,park,同泽春园,,,,
leisure,park,40.1208704,116.5513468,park,花博会主题公园,,,,
leisure,park,39.8743797,116.3435444,park,金中都公园,,,,
leisure,park,39.9549259,116.6952089,park,宋庄文化公园,,,,
leisure,park,39.7259065,116.3419783,park,观音寺公园,,,,
leisure,park,39.9182932,116.5043172,park,绿无限公园,,,,
leisure,park,39.9825614,116.3499107,park,,,,,
leisure,park,39.9846276,116.3503588,park,,,,,
leisure,park,39.9829207,116.3480055,park,,,,,
leisure,park,39.9811596,116.3499775,park,,,,,
leisure,park,39.9716688,116.2824915,park,巴沟山水园,,,,
leisure,park,39.9635229,116.274064,park,梦之园,,,,
leisure,park,39.9635305,116.277842,park,,,,,
leisure,park,39.9637769,116.2795099,park,,,,,
leisure,park,39.9645386,116.2817912,park,金娱娱乐园,,,,
leisure,park,39.9649853,116.2691308,park,,,,,
leisure,park,39.9591275,116.2856869,park,金源娱乐园,,,,
leisure,park,39.9599129,116.2697081,park,,,,,
leisure,park,39.9886885,116.3462561,park,,,,,
leisure,park,39.9932047,116.3430319,park,来园,,,,
leisure,park,39.9949425,116.3428953,park,北语苗圃园,,,,
leisure,park,39.9946577,116.3436388,park,,,,,
leisure,park,39.9941628,116.3450055,park,凌霜园,,,,
leisure,park,39.9926874,116.3421301,park,,,,,
leisure,park,39.9936767,116.344375,park,,,,,
leisure,park,39.9933796,116.3404735,park,,,,,
leisure,park,39.9924805,116.338472,park,,,,,
leisure,park,39.9691645,116.261759,park,船营公园,,,,
leisure,park,39.9527912,116.2702251,park,,,,,
leisure,park,39.9803433,116.2502209,park,中坞公园,,,,
leisure,park,40.0885209,116.3337856,park,,,,,
leisure,park,40.0039572,116.3217509,garden,,,,,
leisure,park,39.9655856,116.2839637,park,长春健身园,,,,
leisure,park,39.9902659,116.3381683,park,,,,,
leisure,park,39.9851268,116.3671207,park,,,,,
leisure,park,39.983569,116.3650608,park,,,,,
leisure,park,39.9847833,116.3685118,park,,,,,
leisure,park,39.9851368,116.3649015,park,,,,,
leisure,park,39.9815361,116.3658081,park,,,,,
leisure,park,39.9838388,116.3670237,park,,,,,
leisure,park,39.9839364,116.3683049,park,,,,,
leisure,park,39.9831717,116.3685597,park,,,,,
leisure,park,40.0812229,116.3359484,park,,,,,
leisure,park,40.0344465,116.3679217,park,宝盛里观景园东公园,,,,
leisure,park,39.9137774,116.1351388,park,北京冬奥公园,,,,
leisure,park,39.9009769,116.1259933,park,,,,,
leisure,park,39.8951743,116.1335937,park,,,,,
leisure,park,39.9056503,116.1027178,park,冯村公园,,,,
leisure,park,39.9244537,116.1051352,park,葡山公园,,,,
leisure,park,40.0696382,116.2398045,park,,,,,
leisure,park,39.908843,116.574248,park,西会公园,,,,
leisure,park,39.9042194,116.5950985,park,,,,,
leisure,park,39.9779666,116.3457799,park,唯实园,,,,
leisure,park,39.9079635,116.6072341,park,八里桥音乐主题公园,,,,
leisure,park,40.1280121,116.4025697,park,,,,,
leisure,park,40.0764938,116.340172,park,21-5-1,,,,
leisure,park,40.0765127,116.3403277,park,21-4-1,,,,
leisure,park,40.0765371,116.3405295,park,21-3-1,,,,
leisure,park,40.076556,116.3407241,park,21-2-1,,,,
leisure,park,40.076575,116.3409223,park,21-1-1,,,,
leisure,park,39.7690875,116.6415783,park,马驹桥湿地公园一期东区,,,,
leisure,park,39.7557113,116.6335984,park,马驹桥湿地公园二期,,,,
leisure,park,40.0422602,116.3397376,park,休闲公园,,,,
leisure,park,39.932627,116.6677274,park,德园,,,,
leisure,park,39.9313341,116.3837254,park,静心斋,,,,
leisure,park,39.9284406,116.3858791,park,画舫斋,,,,
leisure,park,39.9532351,116.5111992,park,东风公园,,,,
leisure,park,39.9545119,116.5093958,park,,,,,
leisure,park,39.7513612,116.3291262,park,枣林公园,,,,
leisure,park,39.9441324,116.2876503,park,车道沟公园,,,,
leisure,park,39.9570459,116.0935125,park,福亭公园,,,,
leisure,park,39.9553332,116.0931075,park,福鼎公园,,,,
leisure,park,39.9865885,116.2456432,park,北坞公园,,,,
leisure,park,39.7421568,116.2940613,park,清源公园,,,,
leisure,park,39.8956525,116.4802487,park,百子湾公园,,,,
leisure,park,39.9752508,116.2423193,park,茶棚公园,,,,
leisure,park,39.9762289,116.2539205,park,,,,,
leisure,park,39.9765631,116.3369993,park,,,,,
leisure,park,39.9721079,116.2767425,park,怡乐园,,,,
leisure,park,39.9249792,116.3918833,garden,,,,,
leisure,park,40.0912486,116.3486552,park,乐府公园,,,,
leisure,park,39.9762069,116.2194945,park,丹青圃公园,,,,
leisure,park,40.043502,116.3176219,park,,,,,
leisure,park,39.9977524,116.3537947,park,畅乐园,,,,
leisure,park,39.9730862,116.3192121,park,知春公园,,,,
leisure,park,39.9818757,116.3050551,park,,,,,
leisure,park,39.9337609,116.2821804,park,,,,,
leisure,park,39.9445978,116.4949738,park,,,,,
leisure,park,39.9426986,116.4942472,park,,,,,
leisure,park,39.9899657,116.1910023,park,,,,,
leisure,park,39.9929977,116.1933537,garden,香山街道社区绿地,,,,
leisure,park,39.9888096,116.4398257,park,望和公园南园,,,,
leisure,park,39.9888397,116.4398126,park,北京龙韵国际公园,,,,
leisure,park,40.0000111,116.3484429,garden,,,,,
leisure,park,40.0028432,116.3500675,park,,,,,
leisure,park,40.0046275,116.3499996,park,,,,,
leisure,park,40.0020005,116.3501133,park,,,,,
leisure,park,39.9540664,116.4882851,park,,,,,
leisure,park,39.8483408,116.3567183,park,,,,,
leisure,park,39.9764933,116.4959461,park,丁香园,,,,
leisure,park,40.1325885,116.6649772,park,和谐广场,,,,
leisure,park,40.1237803,116.6559897,park,,,,,
leisure,park,40.1311236,116.6726654,park,顺义新城滨河森林公园-水岸风情园南区,,,,
leisure,park,40.136047,116.6697583,park,顺义新城滨河森林公园-水岸风情园北区,,,,
leisure,park,40.1386872,116.6571193,park,,,,,
leisure,park,40.1353508,116.6607786,park,减河公园,,,,
leisure,park,40.1313336,116.663341,park,减河公园,,,,
leisure,park,40.1281466,116.6512115,park,,,,,
leisure,park,40.143444,116.6501122,park,,,,,
leisure,park,40.1469987,116.6537632,park,双兴公园,,,,
leisure,park,40.0812381,116.7247925,park,顺义新城滨河森林公园-趣味运动园,,,,
leisure,park,40.1133481,116.6945128,park,顺义新城滨河森林公园,,,,
leisure,park,40.1014647,116.7147361,park,顺义新城滨河森林公园-森林游憩园,,,,
leisure,park,39.959226,116.6806327,park,宋庄文化公园二期,,,,
leisure,park,39.925459,116.6782241,park,龙旺庄村公园,,,,
leisure,park,39.9402876,116.5588977,park,京城槐园,,,,
leisure,park,39.9400391,116.6141252,park,,,,,
leisure,park,39.9362708,116.6157731,park,,,,,
leisure,park,39.9369246,116.6108105,park,,,,,
leisure,park,40.1715936,116.3176431,park,百善中心公园,,,,
leisure,park,39.8425358,116.5445617,park,马家湾湿地公园,,,,
leisure,park,39.9260583,116.2707919,park,,,,,
leisure,park,39.9104606,116.3842814,garden,,,,,
leisure,park,39.998208,116.1991247,,,,,,
leisure,park,39.9684828,116.3944414,park,,,,,
leisure,park,39.878811,116.2573421,park,天元公园,,,,
leisure,park,39.7581159,116.5746983,park,金马公园,,,,
leisure,park,39.7706032,116.5804715,park,尚悦居配建公园,,,,
leisure,park,39.8723041,116.1929822,garden,皮特·沃克花园,,,,
leisure,park,39.8711719,116.1922616,garden,明园,,,,
leisure,park,39.8715182,116.1926492,garden,小径花园,,,,
leisure,park,39.8727718,116.1929659,garden,彼得拉茨花园,,,,
leisure,park,39.8733286,116.1927961,garden,三谷彻花园,,,,
leisure,park,39.8737632,116.1925943,garden,印象四合院,,,,
leisure,park,39.8743227,116.1923254,garden,凹陷花园,,,,
leisure,park,39.8710571,116.1893426,garden,,,,,
leisure,park,39.8708995,116.1898467,garden,,,,,
leisure,park,39.9119074,116.3153349,park,,,,,
leisure,park,39.8703627,116.43884,park,弘善公园,,,,
leisure,park,39.8998576,116.3902632,park,,,,,
leisure,park,39.9810404,116.3034724,park,萨利宅院,,,,
leisure,park,39.9847624,116.2997321,park,,,,,
leisure,park,39.9154298,116.3929258,garden,,,,,
leisure,park,39.9946875,116.1903284,park,concrete park,,,,
leisure,park,39.9146777,116.7179555,park,,,,,
leisure,park,39.901086,116.7045151,park,,,,,
leisure,park,39.9086049,116.7027551,park,,,,,
leisure,park,39.9090407,116.6992615,park,,,,,
leisure,park,39.9120157,116.70292,park,,,,,
leisure,park,39.9209767,116.6814998,park,减河公园,,,,
leisure,park,39.9201102,116.7009832,park,,,,,
leisure,park,39.919759,116.7030023,park,潞城中心公园,,,,
leisure,park,39.9199938,116.7028492,park,,,,,
leisure,park,39.9190162,116.7116374,park,,,,,
leisure,park,39.9154761,116.7300944,park,,,,,
leisure,park,39.9235031,116.6892432,park,,,,,
leisure,park,39.9896048,116.3452808,garden,中国地质大学花园,,,,
leisure,park,39.7368216,116.3225965,park,,,,,
leisure,park,39.9167772,116.3984689,garden,,,,,
leisure,park,39.9168054,116.3993413,garden,,,,,
leisure,park,39.9118086,116.3765586,park,,,,,
leisure,park,39.9127646,116.3772522,garden,,,,,
leisure,park,39.9132213,116.3779187,garden,,,,,
leisure,park,39.8947907,116.7132931,park,镜湖园,,,,
leisure,park,39.9051819,116.7122728,park,,,,,
leisure,park,39.8340474,116.281729,park,,,,,
leisure,park,40.0173595,116.3283867,park,东升八家郊野公园西区,,,,
leisure,park,40.0128706,116.3265898,park,北京东升花园中心,,,,
leisure,park,39.7991614,116.2882605,park,高鑫公园,,,,
leisure,park,39.914031,116.3928707,garden,,,,,
leisure,park,39.9140319,116.3931338,garden,,,,,
leisure,park,39.9754454,116.3542121,park,,,,,
leisure,park,39.9003514,116.3280641,park,会城门公园,,,,
leisure,park,39.8874306,116.3288946,park,,,,,
leisure,park,39.8832402,116.3293666,park,,,,,
leisure,park,39.8796312,116.3294518,park,,,,,
leisure,park,39.8429961,116.3621389,park,马家堡嘉园三里社区公共空间项目,,,,
leisure,park,39.9923747,116.2038089,garden,国家植物园（南园）,,,,
leisure,park,39.9916005,116.2280526,park,妙云寺公园,,,,
leisure,park,39.9142859,116.321003,park,远香园,,,,
leisure,park,39.9145085,116.3220082,park,留春园,,,,
leisure,park,40.1748695,116.5672092,park,七彩蝶园,,,,
leisure,park,39.9006389,116.4311892,park,大通滨河公园,,,,
leisure,park,39.9012021,116.4540171,park,庆丰公园（西园）,,,,
leisure,park,39.945283,116.4219502,park,,,,,
leisure,park,39.852995,116.3578378,park,嘉河公园,,,,
leisure,park,40.0344791,116.2641947,garden,药用植物园,,,,
leisure,park,39.9698252,116.414598,park,,,,,
leisure,park,39.9711334,116.4144979,park,启荣园,,,,
leisure,park,40.0087083,116.3806123,park,奥林匹克公园,,,,
leisure,park,39.9262562,116.5058547,park,润青湖,,,,
leisure,park,39.9369479,116.3383292,park,,,,,
leisure,park,39.9377619,116.2390711,park,田村文化体育广场,,,,
leisure,park,39.9198536,116.2733034,park,定慧公园怡趣园,,,,
leisure,park,39.9196114,116.2775348,park,定慧公园,,,,
leisure,park,39.9195561,116.2823254,park,,,,,
leisure,park,39.6915098,116.4265018,park,爱情海玫瑰园,,,,
leisure,park,39.9588157,116.3638137,park,,,,,
leisure,park,39.9974351,116.656745,park,,,,,
leisure,park,40.0778528,116.2273361,park,,,,,
leisure,park,40.0740646,116.2288004,park,,,,,
leisure,park,40.0756614,116.2278081,park,,,,,
leisure,park,40.0768455,116.2313131,park,,,,,
leisure,park,40.0751562,116.2256764,park,,,,,
leisure,park,40.0742796,116.2226342,park,,,,,
leisure,park,40.072271,116.2297351,park,,,,,
leisure,park,40.0780709,116.2344107,park,,,,,
leisure,park,40.0779432,116.235139,park,,,,,
leisure,park,40.0748294,116.2386136,park,,,,,
leisure,park,40.0752851,116.2384044,park,,,,,
leisure,park,40.0780599,116.2355559,park,,,,,
leisure,park,40.0797751,116.241991,park,,,,,
leisure,park,40.0797484,116.2407703,park,,,,,
leisure,park,40.0812634,116.2400344,park,,,,,
leisure,park,40.0838396,116.2443975,park,,,,,
leisure,park,40.0809141,116.246112,park,,,,,
leisure,park,40.0776344,116.2477507,park,,,,,
leisure,park,40.0759377,116.2654434,park,,,,,
leisure,park,40.0692199,116.3065938,park,,,,,
leisure,park,40.0646587,116.3642099,park,翡丽公园,,,,
leisure,park,40.0798989,116.3206364,park,,,,,
leisure,park,40.0759761,116.3525894,park,,,,,
leisure,park,40.0874374,116.4286646,park,,,,,
leisure,park,40.1023042,116.5329337,park,龙腾世纪文化广场,,,,
leisure,park,40.0743906,116.1993984,park,,,,,
leisure,park,40.1055559,116.1286255,park,同泽秋园,,,,
leisure,park,40.0980816,116.1310346,park,,,,,
leisure,park,40.0955302,116.1360887,park,,,,,
leisure,park,40.0883797,116.1281511,park,,,,,
leisure,park,40.1236613,116.1981044,park,威凯居住区绿地公园东区,,,,
leisure,park,40.1024397,116.1711885,park,翠湖国家城市湿地公园,,,,
leisure,park,39.8521568,116.1784899,park,张郭庄休闲公园,,,,
leisure,park,39.8494384,116.1893562,park,二七车辆社区文化广场,,,,
leisure,park,39.8617788,116.1847747,park,,,,,
leisure,park,39.8671562,116.1877023,park,,,,,
leisure,park,39.8581233,116.180755,park,,,,,
leisure,park,39.8579835,116.1805881,park,,,,,
leisure,park,39.9322608,116.5868522,park,蝶泉花园,,,,
leisure,park,39.9087035,116.3954746,garden,,,,,
leisure,park,39.9031327,116.388626,park,,,,,
leisure,park,39.9053866,116.388498,park,,,,,
leisure,park,39.941395,116.2977401,garden,,,,,
leisure,park,39.9408077,116.2967924,garden,,,,,
leisure,park,39.688303,116.3184879,park,,,,,
leisure,park,39.6991687,116.2828858,park,,,,,
leisure,park,39.7099021,116.2968095,park,大兴滨河森林公园,,,,
leisure,park,39.733029,116.2825392,park,绿苑会馆,,,,
leisure,park,40.0173843,116.3379335,park,八家口袋公园,,,,
leisure,park,40.0291715,116.3027888,park,幸福花园,,,,
leisure,park,39.8960373,116.6972405,park,,,,,
leisure,park,39.9119309,116.6555472,park,西海子公园,,,,
leisure,park,39.8924927,116.6706396,park,万春园,,,,
leisure,park,39.8787061,116.6930918,park,碧水公园,,,,
leisure,park,39.8720061,116.6912326,park,,,,,
leisure,park,39.8724842,116.6750909,park,,,,,
leisure,park,39.8952015,116.6200235,park,杨庄公园,,,,
leisure,park,39.8932887,116.6097484,park,广渠路公园,,,,
leisure,park,39.8946739,116.6009311,park,郭家场村绿地公园,,,,
leisure,park,39.8912492,116.6099108,park,广渠路公园南区,,,,
leisure,park,39.904802,116.6057085,park,,,,,
leisure,park,39.9316499,116.6439523,park,温榆河滨河森林公园北区,,,,
leisure,park,39.9498801,116.6358323,park,,,,,
leisure,park,39.8994532,116.3937338,park,天安门东南角绿地,,,,
leisure,park,39.9274822,116.5898026,park,万象新天社区中心公园,,,,
leisure,park,39.818217,116.3886887,park,和义公园中区,,,,
leisure,park,39.8172571,116.3907501,park,世嘉丽晶口袋公园,,,,
leisure,park,39.8171641,116.3940143,park,,,,,
leisure,park,39.8141446,116.3943668,park,,,,,
leisure,park,39.8121894,116.394539,park,,,,,
leisure,park,39.8115044,116.3964636,park,和义东里健身园,,,,
leisure,park,39.9011419,116.4124602,park,同仁医院口袋公园,,,,
leisure,park,39.8360136,116.3142802,park,,,,,
leisure,park,39.8337559,116.3297343,park,,,,,
leisure,park,39.8422073,116.3338107,park,纪家庙街边公园,,,,
leisure,park,39.8295768,116.3938535,park,梣林叠翠公园,,,,
leisure,park,39.8071177,116.3967755,park,三营门公园,,,,
leisure,park,39.8107774,116.4091818,park,东高地公园,,,,
leisure,park,39.8285921,116.424893,park,,,,,
leisure,park,39.824172,116.4160032,park,,,,,
leisure,park,39.8162486,116.4204007,park,爱琴海公园,,,,
leisure,park,39.8140647,116.4220546,park,,,,,
leisure,park,39.8142153,116.4230761,park,,,,,
leisure,park,39.8319089,116.3928868,park,大红门花飞蝶舞园,,,,
leisure,park,39.830081,116.3995243,park,红门佳荫公园,,,,
leisure,park,39.8330995,116.2588316,park,看丹公园,,,,
leisure,park,39.8361891,116.2533817,park,榆园,,,,
leisure,park,39.8346124,116.4092495,park,,,,,
leisure,park,39.8342489,116.4162863,park,,,,,
leisure,park,39.8345216,116.4221464,park,,,,,
leisure,park,39.8278574,116.4235768,park,,,,,
leisure,park,39.8412241,116.3644995,park,嘉囿城市休闲公园,,,,
leisure,park,39.8898947,116.2385709,park,小瓦窑公园,,,,
leisure,park,39.8026517,116.2153428,park,,,,,
leisure,park,39.8017368,116.2071691,park,苹果园,,,,
leisure,park,39.7849154,116.2095588,park,兰花文化休闲公园,,,,
leisure,park,39.7827215,116.2092286,park,,,,,
leisure,park,39.7864079,116.2144859,park,,,,,
leisure,park,39.8597909,116.3004241,park,庄怡公园,,,,
leisure,park,39.8777704,116.3994076,park,神乐署,,,,
leisure,park,39.9011536,116.4281961,park,,,,,
leisure,park,39.9001357,116.427814,park,,,,,
leisure,park,39.901741,116.4312366,park,,,,,
leisure,park,39.9017513,116.4321861,park,,,,,
leisure,park,39.8986492,116.2927672,garden,,,,,
leisure,park,39.9974709,116.4586929,park,,,,,
leisure,park,39.9964228,116.4623619,park,,,,,
leisure,park,39.9826601,116.4556603,park,,,,,
leisure,park,39.9735888,116.5067158,park,,,,,
leisure,park,40.0212223,116.4631652,park,朝来滑板公园,,,,
leisure,park,39.9147947,116.7167797,park,汉路县城遗址,,,,
leisure,park,39.8453526,116.5264678,park,,,,,
leisure,park,39.8336299,116.5216398,park,,,,,
leisure,park,39.8598651,116.4826273,park,小武基公园,,,,
leisure,park,39.8494855,116.5076281,park,,,,,
leisure,park,39.9143641,116.4116571,park,,,,,
leisure,park,39.9139609,116.4117081,park,,,,,
leisure,park,39.939467,116.3566688,park,北草厂口袋公园,,,,
leisure,park,39.9296178,116.1899677,park,平坡草树城市森林公园,,,,
leisure,park,39.8823401,116.4161599,park,体育馆路口袋公园,,,,
leisure,park,39.9314043,116.2869304,park,京门铁路主题公园,,,,
leisure,park,39.7625071,116.3220242,park,金星西路口袋公园,,,,
leisure,park,39.7618517,116.326711,park,,,,,
leisure,park,39.7134543,116.315413,park,,,,,
leisure,park,39.7134352,116.3117966,park,,,,,
leisure,park,40.0326234,116.2943782,park,新树村郊野公园,,,,
leisure,park,39.8289524,116.4331886,park,芳林公园,,,,
leisure,park,39.9032593,116.3851408,park,,,grass,,
leisure,park,39.9023282,116.384198,park,,,grass,,
leisure,park,39.904036,116.3851167,park,,,grass,,
leisure,park,39.9046996,116.3849424,park,,,grass,,
leisure,park,39.901463,116.382515,park,,,grass,,
leisure,park,39.9032366,116.3818739,park,,,grass,,
leisure,park,39.9046101,116.3820509,park,,,grass,,
leisure,park,39.9050268,116.3838359,park,,,grass,,
leisure,park,39.9046893,116.3820965,park,,,grass,,
leisure,park,39.9020977,116.3837394,park,,,grass,,
leisure,park,39.9018107,116.3840439,park,,,grass,,
leisure,park,39.901464,116.3830192,park,,,grass,,
leisure,park,39.9018395,116.3831788,park,,,grass,,
leisure,park,39.9053745,116.3882971,park,,,,,
leisure,park,39.8981459,116.3920864,park,,,,,
leisure,park,39.8983809,116.3908252,park,,,,,
leisure,park,39.8983698,116.3904616,park,,,,,
leisure,park,39.8981171,116.3904771,park,,,,,
leisure,park,39.8984031,116.3917082,park,,,,,
leisure,park,39.9049066,116.3858431,park,,,,,
leisure,park,39.8970862,116.390343,park,,,,,
leisure,park,39.8978157,116.3898066,park,,,,,
leisure,park,39.9065487,116.3672297,garden,,,,,
leisure,park,39.9069195,116.3672387,garden,,,,,
leisure,park,39.9071071,116.3672408,garden,,,,,
leisure,park,39.90624,116.3661074,garden,,,,,
leisure,park,39.9062373,116.3665951,garden,,,,,
leisure,park,39.9062399,116.3663463,garden,,,,,
leisure,park,39.9062362,116.3668258,garden,,,,,
leisure,park,39.906736,116.3672392,garden,,,,,
leisure,park,39.9054794,116.3683288,park,,,,,
leisure,park,39.9046522,116.3683073,park,,,,,
leisure,park,39.9043261,116.3689041,park,,,,,
leisure,park,39.8814847,116.4029301,garden,月季园,,,,
leisure,park,39.8815297,116.4010688,garden,百花园,,,,
leisure,park,39.9260985,116.187961,park,小广场,,,,
leisure,park,39.9270936,116.2021162,park,牡丹园,,,,
leisure,park,39.9279905,116.2026567,park,毓秀园,,,,
leisure,park,39.9289915,116.2011397,park,古松园,,,,
leisure,park,39.9079025,116.2295487,park,郎园,,,,
leisure,park,39.9956012,116.2864805,park,亮丽园,,,,
leisure,park,39.9644612,116.3226194,park,躺碑庙公园,,,,
leisure,park,39.9393501,116.3652644,park,新街口城市森林公园,,,,
leisure,park,39.9476999,116.4282386,park,,,,,
leisure,park,39.838892,116.5637827,park,,,,,
leisure,park,40.0492057,116.1889642,park,太舟坞公园,,,,
leisure,park,40.0444538,116.1949758,park,,,,,
leisure,park,39.8659125,116.3819992,park,燕墩公园,,,,
leisure,park,39.7192819,116.3901095,park,孙村公园,,,,
leisure,park,39.7055201,116.4010586,park,孙村公园D区,,,,
leisure,park,39.7004289,116.4012778,park,孙村公园C区,,,,
leisure,park,39.9853846,116.3322572,park,京张铁路遗址公园,,,,
leisure,park,39.9252793,116.5287677,park,平房公园,,,,
leisure,park,39.9063482,116.2373692,park,云林花谷,,,,
leisure,park,39.9058196,116.1668991,park,,,,,
leisure,park,39.9216579,116.2149899,park,西郊砂石坑雨洪调蓄工程,,,,
leisure,park,39.8957424,116.3302573,park,小马厂东南角绿地,,,,
leisure,park,39.8757169,116.324827,park,蔺圃园城市森林,,,,
leisure,park,40.1399777,116.2798918,park,,,,,
leisure,park,40.064143,116.571663,park,天竺全环镇域健身步道,,,,
leisure,park,39.8019063,116.3811001,park,玉兰香雪公园,,,,
leisure,park,39.992695,116.1975821,garden,,,,,
leisure,park,40.0058888,116.3276421,garden,世纪林,,,,
leisure,park,39.8942215,116.2157334,park,,,,,
leisure,park,39.894489,116.2177344,park,,,,,
leisure,park,39.894666,116.2239893,park,,,,,
leisure,park,39.8946541,116.2127574,park,,,,,
leisure,park,39.8936643,116.207651,park,,,,,
leisure,park,39.8992005,116.2131625,park,鲁谷奥运文化公园-半月科普园,,,,
leisure,park,39.885697,116.2071104,park,衙门口城市森林公园东区,,,,
leisure,park,39.8895555,116.2036015,park,衙门口城市森林公园西区,,,,
leisure,park,39.9392,116.1774006,park,保险产业园核心绿地,,,,
leisure,park,39.9102757,116.1634594,park,新安城市记忆公园,,,,
leisure,park,39.9549299,116.1169781,park,小青山公园,,,,
leisure,park,40.1680308,116.2560139,park,学府公园,,,,
leisure,park,39.8142702,116.2533012,garden,紫谷伊甸园,,,,
leisure,park,39.843669,116.2178323,park,绿堤公园,,,,
leisure,park,39.8914484,116.5288857,park,,,,,
leisure,park,40.0616291,116.379201,park,贺新公园,,,,
leisure,park,39.7715306,116.6131978,park,马驹桥湿地公园一期西区,,,,
leisure,park,40.1547911,116.6255144,park,马坡千亩森林公园,,,,
leisure,park,39.8595023,116.1167942,park,北宫森林公园,,,,
leisure,park,39.8998348,116.2489122,garden,,,,,
leisure,park,39.9001573,116.2496168,garden,花园,,,,
leisure,park,40.0054884,116.4653453,garden,,,,,
leisure,park,40.0052202,116.4657681,garden,,,,,
leisure,park,40.0737068,116.3083085,park,,,,,
leisure,park,40.0328024,116.6571592,park,东郊湿地公园,,,,
leisure,park,39.9945223,116.2537288,park,两山公园东（原高尔夫练习场）,,,,
leisure,park,39.862524,116.2822517,garden,芍药园,,,,
leisure,park,40.0460397,116.6119203,garden,,,,,
leisure,park,40.0458501,116.6092223,garden,,,,,
leisure,park,40.0297842,116.2610818,park,百旺绿地公园,,,,
leisure,park,40.0437233,116.4067558,park,立水桥公园南区,,,,
leisure,park,40.0349193,116.423899,park,绿谷公园,,,,
leisure,park,39.948617,116.3924083,garden,,,,,
leisure,park,39.9486155,116.3933512,garden,,,,,
leisure,park,39.7955574,116.5110876,garden,,,,,
leisure,park,39.79678,116.5097956,garden,,,,,
leisure,park,39.7963635,116.5100215,garden,,,,,
leisure,park,39.798069,116.5137172,garden,,,,,
leisure,park,39.8225892,116.5009939,park,横街子街心公园,,,,
leisure,park,40.0374457,116.5005178,park,,,,,
leisure,park,39.7536225,116.438317,garden,,,,,
leisure,park,39.7536692,116.4385889,garden,,,,,
leisure,park,39.7648638,116.4515607,park,红星集体农庄纪念公园,,,,
leisure,park,39.7527219,116.4718713,park,瀛海足球主题公园,,,,
leisure,park,39.7528596,116.4668481,park,,,,,
leisure,park,39.7567798,116.4531973,park,瀛海休闲体育公园,,,,
leisure,park,39.775194,116.4166055,park,市民公园,,,,
leisure,park,39.8854666,116.7208929,park,城市绿心森林公园,,,,
leisure,park,39.8993075,116.7527041,park,东堡公园,,,,
leisure,park,39.805739,116.5115477,garden,,,,,
leisure,park,39.8056077,116.511689,garden,,,,,
leisure,park,39.8052962,116.5116237,garden,,,,,
leisure,park,39.8052228,116.511967,garden,,,,,
leisure,park,39.7449541,116.2791007,garden,建苑,,,,
leisure,park,39.7450415,116.2778268,garden,,,,,
leisure,park,39.7507327,116.2801698,garden,,,,,
leisure,park,39.7439608,116.2804762,garden,,,,,
leisure,park,39.743956,116.2817297,garden,,,,,
leisure,park,39.745578,116.2807613,garden,,,,,
leisure,park,39.9341536,116.3350113,garden,,,,,
leisure,park,39.9333453,116.3351694,garden,,,,,
leisure,park,39.9339178,116.3368431,garden,,,,,
leisure,park,39.9345102,116.3368371,garden,,,,,
leisure,park,39.9346997,116.3352488,garden,,,,,
leisure,park,39.9325851,116.3339093,garden,,,,,
leisure,park,39.7462123,116.2811687,garden,,,,,
leisure,park,39.911177,116.5509276,park,文化广场,,,,
leisure,park,40.0190089,116.4641995,park,,,,,
leisure,park,39.9705645,116.3906983,park,安贞社区公园,,,,
leisure,park,39.9383506,116.1800015,park,,,,,
leisure,park,39.9383452,116.1797601,park,,,,,
leisure,park,39.9383797,116.1827114,park,,,,,
leisure,park,39.940175,116.1910254,park,,,,,
leisure,park,39.9405883,116.1854652,park,,,,,
leisure,park,39.9443516,116.1801919,park,余山微塘公园,,,,
leisure,park,39.940286,116.1755705,park,,,,,
leisure,park,39.9390706,116.17295,park,,,,,
leisure,park,39.9365431,116.1669445,park,,,,,
leisure,park,39.9109871,116.1211485,park,绿海运动公园南区,,,,
leisure,park,39.9117278,116.1205208,park,绿海运动公园,,,,
leisure,park,39.9472981,116.3877935,park,,,,,
leisure,park,39.9865137,116.2392212,park,影湖楼公园,,,,
leisure,park,39.9749457,116.2366783,park,,,,,
leisure,park,39.9722945,116.2141384,park,南旱河公园,,,,
leisure,park,39.9877013,116.2355136,park,,,,,
leisure,park,39.9538157,116.290399,park,南长河公园（西段）,,,,
leisure,park,39.9510626,116.2931392,park,南长河公园（中段）,,,,
leisure,park,40.0399152,116.3304553,park,碧水风荷公园,,,,
leisure,park,39.7925409,116.5501193,garden,,,,,
leisure,park,39.9976467,116.4124813,park,,,,,
leisure,park,39.8735613,116.3073713,park,太平桥街道精图绿化文体休闲广场,,,,
leisure,park,39.8798812,116.5048245,park,王四营官庄公园北区,,,,
leisure,park,39.9524676,116.5836525,park,金盏森林公园,,,,
leisure,park,39.8468024,116.5456394,park,富力又一城公园,,,,
leisure,park,40.0483837,116.4756231,park,奶东公园,,,,
leisure,park,40.046775,116.4884872,park,何里栖地公园,,,,
leisure,park,40.0448303,116.5297477,park,,,,,
leisure,park,40.0550859,116.5097347,park,道济禅,,,,
leisure,park,40.0435191,116.4722461,park,,,,,
leisure,park,40.0194349,116.451707,park,,,,,
leisure,park,39.7744154,116.2568645,park,立垡花园,,,,
leisure,park,39.7778993,116.3236091,park,西红门城市生态休闲公园-西区,,,,
leisure,park,39.7778004,116.3244567,park,西红门城市生态休闲公园-西南区,,,,
leisure,park,39.7808412,116.3238763,park,西红门城市生态休闲公园-西北区,,,,
leisure,park,39.7788203,116.3490063,park,西红门城市生态休闲公园-中区,,,,
leisure,park,39.7774279,116.359813,park,西红门城市生态休闲公园-东区,,,,
leisure,park,39.7764375,116.3464035,park,大兴生态文明教育公园,,,,
leisure,park,39.7799283,116.3385951,park,西红门城市生态休闲公园-北区,,,,
leisure,park,39.8022228,116.4240225,park,五福堂公园-北二区,,,,
leisure,park,39.7653598,116.4063878,park,西毓顺公园,,,,
leisure,park,39.8113789,116.3558266,park,,,,,
leisure,park,39.8103934,116.3539306,park,,,,,
leisure,park,39.9149652,116.6229783,park,永顺公园,,,,
leisure,park,39.9215469,116.6171682,park,西马庄公园,,,,
leisure,park,39.9552364,116.6640539,park,刘庄公园,,,,
leisure,park,39.9629355,116.6814572,park,,,,,
leisure,park,39.7447663,116.53967,park,,,,,
leisure,park,39.7448489,116.5424653,park,马驹桥城市森林-休闲公园段,,,,
leisure,park,39.7341296,116.3505951,park,,,,,
leisure,park,40.0472558,116.3384825,park,西小口公园南区,,,,
leisure,park,40.0470438,116.3320086,park,,,,,
leisure,park,39.9108446,116.2237908,park,老山森林公园南区,,,,
leisure,park,39.7829644,116.4377731,park,南海子郊野公园-综合配套服务区,,,,
leisure,park,39.9404275,116.6669139,park,,,,,
leisure,park,39.9422206,116.6634646,park,惠兰美居公园,,,,
leisure,park,39.9520781,116.6676633,park,,,,,
leisure,park,39.9517068,116.6670059,park,,,,,
leisure,park,39.9303659,116.6179239,park,五里桥公园,,,,
leisure,park,39.940982,116.7198291,park,,,,,
leisure,park,39.8513342,116.7124436,park,,,,,
leisure,park,39.8230029,116.7217345,park,,,,,
leisure,park,39.8257088,116.755561,park,张家湾公园北区,,,,
leisure,park,39.8155466,116.6738213,park,十里庄村文化公园,,,,
leisure,park,39.7313972,116.5763953,park,周易社区文体广场,,,,
leisure,park,39.7472595,116.6390044,park,东南郊湿地公园,,,,
leisure,park,39.7271138,116.6214542,park,长子营湿地公园,,,,
leisure,park,39.8456142,116.7595828,park,大运河森林公园-高台平林,,,,
leisure,park,39.8180423,116.6057981,park,台湖万亩游憩园二期南区,,,,
leisure,park,39.8199148,116.6232011,park,垛子公园,,,,
leisure,park,39.8164284,116.6227031,park,台湖万亩游憩园二期东区,,,,
leisure,park,39.8281264,116.6061673,park,台湖万亩游憩园二期北区,,,,
leisure,park,39.8276851,116.6317911,park,新印象台湖森林公园,,,,
leisure,park,39.9157501,116.688862,park,,,,,
leisure,park,39.9170649,116.7016099,park,,,,,
leisure,park,39.8130674,116.5700295,park,东石公园,,,,
leisure,park,39.8213652,116.5813485,park,阡陌风韵休闲公园,,,,
leisure,park,39.8281696,116.5934599,park,金福湿地公园,,,,
leisure,park,39.842345,116.631181,park,,,,,
leisure,park,39.8440202,116.6190857,park,古运萧太后河码头遗址公园,,,,
leisure,park,39.8439124,116.624304,park,,,,,
leisure,park,39.835772,116.6357447,park,,,,,
leisure,park,39.832872,116.6357554,park,,,,,
leisure,park,39.8303262,116.6357018,park,,,,,
leisure,park,39.8780829,116.6680612,park,,,,,
leisure,park,39.7181651,116.6932352,park,,,,,
leisure,park,39.7224387,116.6902119,park,,,,,
leisure,park,39.7174753,116.6774769,park,于家务中心公园,,,,
leisure,park,39.7175152,116.6770997,park,,,,,
leisure,park,39.736554,116.6662938,park,,,,,
leisure,park,39.7223974,116.7098334,park,延芳广场,,,,
leisure,park,39.9436859,116.6718474,park,富力休闲公园,,,,
leisure,park,39.9515986,116.6444727,park,新地家园城市森林公园,,,,
leisure,park,39.8921164,116.6794222,park,乔庄西区公园,,,,
leisure,park,39.9095758,116.7275497,park,通州区北区保障房公园,,,,
leisure,park,40.0336893,116.3562565,park,西三旗公园,,,,
leisure,park,39.9042368,116.4498318,park,国贸CBD城市森林公园,,,,
leisure,park,40.083406,116.3758776,park,霍营公园南区,,,,
leisure,park,40.082777,116.3792682,park,,,,,
leisure,park,40.0536133,116.3339238,park,西小口公园北区,,,,
leisure,park,40.0575288,116.3335204,park,,,,,
leisure,park,40.0417518,116.4359869,park,朝来森林公园三期,,,,
leisure,park,40.0434546,116.4359846,park,朝来森林公园三期北区,,,,
leisure,park,40.0476248,116.3622581,park,东小口城市休闲公园,,,,
leisure,park,39.7081914,116.1378778,park,良香公园,,,,
leisure,park,39.7127307,116.1518072,park,良乡大学城公园·水苑,,,,
leisure,park,39.742347,116.1672941,park,清水熙森林公园,,,,
leisure,park,39.7412759,116.1803215,park,广阳城森林公园,,,,
leisure,park,39.7387276,116.1817845,park,金隅公园,,,,
leisure,park,39.73676,116.1837026,park,,,,,
leisure,park,39.7369765,116.18594,park,,,,,
leisure,park,39.7168082,116.1871367,park,,,,,
leisure,park,39.7240406,116.1806705,park,,,,,
leisure,park,39.907475,116.42716,garden,,,,,
leisure,park,39.9075386,116.4251948,garden,,,,,
leisure,park,39.9075393,116.4252673,garden,,,,,
leisure,park,39.9092827,116.4269908,garden,,,,,
leisure,park,39.7551566,116.1777148,park,,,,,
leisure,park,39.7537195,116.1810286,park,房山新城滨水森林公园东区,,,,
leisure,park,39.9159421,116.3983682,garden,,,,,
leisure,park,39.7436304,116.1383416,park,府前广场,,,,
leisure,park,40.145751,116.2548332,park,,,,,
leisure,park,40.1339179,116.2628018,park,,,,,
leisure,park,39.9466044,116.463092,park,,,,,
leisure,park,39.9459514,116.4561483,park,,,,,
leisure,park,39.9467266,116.4561322,park,,,,,
leisure,park,39.9454928,116.4494616,park,,,,,
leisure,park,39.9449541,116.4494455,park,,,,,
leisure,park,39.7167404,116.1482171,park,,,,,
leisure,park,39.7145856,116.1723202,park,良乡大学城公园·艺苑,,,,
leisure,park,39.9723443,116.4194694,garden,,,,,
leisure,park,39.972316,116.4206562,garden,,,,,
leisure,park,39.9502901,116.4716206,park,,,,,
leisure,park,39.9480046,116.4663193,park,,,,,
leisure,park,39.9471913,116.4626902,park,,,,,
leisure,park,39.9474779,116.462643,park,,,,,
leisure,park,39.9304041,116.5243918,park,京城森林公园东区,,,,
leisure,park,39.8818769,116.5494932,park,金田公园北区,,,,
leisure,park,39.8832206,116.5579046,park,金田公园南区,,,,
leisure,park,39.8737594,116.5510907,park,白鹿公园,,,,
leisure,park,39.8778395,116.4975554,park,王四营官庄公园南区,,,,
leisure,park,39.8212734,116.4944345,park,横街子公园,,,,
leisure,park,39.8211198,116.5064776,park,亦新郊野公园西区,,,,
leisure,park,39.825478,116.5128895,park,亦新郊野公园东区,,,,
leisure,park,39.7933111,116.4251585,park,旧宫城市森林公园西区,,,,
leisure,park,39.7918294,116.4318958,park,旧宫城市森林公园东区,,,,
leisure,park,39.8266063,116.3773322,park,桃苑公园,,,,
leisure,park,39.8247945,116.3632414,park,,,,,
leisure,park,39.8180193,116.3742757,park,槐房钓鱼公园,,,,
leisure,park,39.8113111,116.2748041,park,御康公园,,,,
leisure,park,39.8786233,116.2886748,park,万丰公园,,,,
leisure,park,39.8820655,116.2737635,park,足球公园,,,,
leisure,park,39.8639375,116.2462377,park,绿源公园,,,,
leisure,park,39.8635433,116.2501983,park,郭庄子公园,,,,
leisure,park,39.9398442,116.2317094,park,平庄郊野公园,,,,
leisure,park,39.9465434,116.2321266,park,西山公园,,,,
leisure,park,39.9559638,116.2366843,park,黑塔公园,,,,
leisure,park,39.9553055,116.2493221,park,,,,,
leisure,park,39.9545709,116.2488082,park,西冉城市生态公园西C区,,,,
leisure,park,39.9545101,116.2531026,park,西冉城市生态公园东C区,,,,
leisure,park,39.9527119,116.2547987,park,西冉城市生态公园B区,,,,
leisure,park,39.9545488,116.255968,park,西冉城市生态公园北A区,,,,
leisure,park,39.9484927,116.2559221,park,西冉城市生态公园南A区,,,,
leisure,park,39.8567366,116.3228312,park,,,,,
leisure,park,39.8099157,116.3943451,park,和义健身广场,,,,
leisure,park,39.8342091,116.4067698,park,南垣秋实公园,,,,
leisure,park,39.8172873,116.3177426,park,白盆窑公园,,,,
leisure,park,39.8139643,116.3157108,park,,,,,
leisure,park,39.8917488,116.2686992,park,郑常庄炫彩园,,,,
leisure,park,39.8178639,116.1541374,park,张家坟叠翠公园,,,,
leisure,park,39.8156615,116.1646719,park,长辛店城市森林公园,,,,
leisure,park,39.8465201,116.1749349,park,太子峪枫林杏苑,,,,
leisure,park,39.8138624,116.3641383,park,槐房小微公园,,,,
leisure,park,39.8169986,116.3063486,park,郭公庄小微公园,,,,
leisure,park,39.8930308,116.2685038,park,郑常庄小微公园,,,,
leisure,park,39.805912,116.1829221,park,朱南社区小微公园,,,,
leisure,park,39.8567811,116.3133062,park,丽泽小微公园,,,,
leisure,park,39.8700766,116.227274,park,瓦窑文化公园,,,,
leisure,park,39.8351703,116.395316,park,红门霞栖公园,,,,
leisure,park,39.7550433,116.7380289,park,漷县镇中心公园南区,,,,
leisure,park,39.7590835,116.7450944,park,凤港河湿地(西鲁公园),,,,
leisure,park,39.8293773,116.3958789,park,秀林秋彩公园,,,,
leisure,park,39.85468,116.3947095,park,御道入口公园,,,,
leisure,park,39.8845253,116.2472676,park,郑常庄公园,,,,
leisure,park,39.883754,116.2532753,park,,,,,
leisure,park,39.8171004,116.1590804,park,静欣苑公园,,,,
leisure,park,39.805415,116.38837,park,龙河春绯园,,,,
leisure,park,39.9592287,116.3253489,park,,,,,
leisure,park,39.9491925,116.3187504,park,,,,,
leisure,park,39.9480096,116.3123933,park,,,,,
leisure,park,39.9947702,116.296927,garden,蔚秀园,,,,
leisure,park,40.0006721,116.5176003,park,,,,,
leisure,park,40.049097,116.3024987,park,,,,,
leisure,park,40.0011064,116.3210924,park,牡丹园,,,,
leisure,park,39.9118553,116.6103142,park,管庄地区文化广场,,,,
leisure,park,39.8914342,116.4977128,park,,,,,
leisure,park,39.9938847,116.5252656,park,黑桥公园,,,,
leisure,park,39.9091958,116.5948453,park,杨闸村绿地公园,,,,
leisure,park,39.8945056,116.5950282,park,管庄木材厂绿地,,,,
leisure,park,39.8973334,116.5555233,park,杜仲公园二期西区,,,,
leisure,park,39.8979646,116.5625532,park,杜仲公园二期北区,,,,
leisure,park,39.9230595,116.2009287,park,田村城市休闲公园,,,,
leisure,park,39.9064358,116.1312016,park,,,,,
leisure,park,39.9055776,116.131512,park,,,,,
leisure,park,39.9062752,116.1274558,park,,,,,
leisure,park,39.9056441,116.1311222,park,,,,,
leisure,park,39.905334,116.1260339,park,,,,,
leisure,park,39.9004417,116.1325625,park,福幼公园,,,,
leisure,park,39.9097854,116.7312717,park,,,,,
leisure,park,39.9133266,116.7302703,park,,,,,
leisure,park,39.9092253,116.7306648,park,,,,,
leisure,park,39.9059664,116.7313082,park,,,,,
leisure,park,39.9055368,116.7311632,park,,,,,
leisure,park,39.9031127,116.7291794,park,,,,,
leisure,park,39.7535231,116.4455864,park,,,,,
leisure,park,39.8991853,116.4660713,park,井点小微空间,,,,
leisure,park,39.8889054,116.3249144,park,广安门外城市休闲公园,,,,
leisure,park,39.8897987,116.324242,park,广安荷香,,,,
leisure,park,39.8945112,116.3343205,park,逸骏园城市森林公园,,,,
leisure,park,39.886593,116.3366519,park,,,,,
leisure,park,40.0233575,116.468705,park,善各庄城市休闲公园,,,,
leisure,park,39.8267673,116.4779857,park,镇海寺郊野公园二期,,,,
leisure,park,39.9986461,116.593805,park,东窑村体育广场,,,,
leisure,park,39.8828442,116.4772506,park,窑洼湖公园,,,,
leisure,park,39.902442,116.4877104,park,惠水湾森林公园,,,,
leisure,park,39.8648094,116.4731925,park,萧太后河源头广场,,,,
leisure,park,39.8576166,116.4847684,park,,,,,
leisure,park,39.8439553,116.5067144,park,,,,,
leisure,park,39.8108404,116.410256,park,聚贤公园,,,,
leisure,park,39.7770486,116.3999823,park,五福堂生态文明公园,,,,
leisure,park,39.9301629,116.5528134,park,京城梨园二期,,,,
leisure,park,39.7239928,116.4698977,park,北辛屯公园,,,,
leisure,park,39.9239754,116.598503,park,常营体育公园,,,,
leisure,park,39.9220757,116.5915075,park,HIGH ONE竞技乐园,,,,
leisure,park,39.8930837,116.3982074,park,三里河公园,,,,
leisure,park,39.9695326,116.4545831,park,坝河常庆花园,,,,
leisure,park,40.0437375,116.1755484,park,白家疃公园,,,,
leisure,park,40.0459148,116.1807642,park,,,,,
leisure,park,40.0435776,116.1806415,park,,,,,
leisure,park,40.0435113,116.1797177,park,,,,,
leisure,park,40.0452517,116.1797826,park,,,,,
leisure,park,40.0444181,116.1882123,park,,,,,
leisure,park,40.0495438,116.1714421,park,温泉公园,,,,
leisure,park,40.0323875,116.1693083,park,白家疃景观休闲园,,,,
leisure,park,39.9422097,116.5036164,park,,,,,
leisure,park,39.8973697,116.2397779,park,旺景公园,,,,
leisure,park,39.9764868,116.513535,park,,,,,
leisure,park,39.947097,116.3637204,park,潭西胜境公园,,,,
leisure,park,39.9979409,116.3366362,park,,,,,
leisure,park,40.1619986,116.6379944,park,,,,,
leisure,park,40.0255801,116.5185804,park,,,,,
leisure,park,40.033808,116.5104756,park,,,,,
leisure,park,40.0465647,116.6401902,park,,,,,
leisure,park,40.0986728,116.629129,park,爱迪公园,,,,
leisure,park,40.0043413,116.3331021,park,,,,,
leisure,park,39.9565054,116.4442494,park,奥运文化广场,,,,
leisure,park,39.9653188,116.4546788,park,,,,,
leisure,park,39.9656422,116.4562699,park,,,,,
leisure,park,39.9718479,116.4539844,park,,,,,
leisure,park,39.8933538,116.7675579,park,潞城药艺公园,,,,
leisure,park,40.0198937,116.4311881,park,,,,,
leisure,park,39.9774264,116.2010484,park,,,,,
leisure,park,40.0150362,116.3208376,park,荷清园,,,,
leisure,park,39.8115547,116.3881115,park,和义西里健身广场,,,,
leisure,park,39.8158151,116.5816591,park,乐跑公园,,,,
leisure,park,39.81196,116.5700702,park,,,,,
leisure,park,39.7838067,116.5734226,park,通明湖公园,,,,
leisure,park,39.8525286,116.6227222,park,台湖体育公园,,,,
leisure,park,39.8361197,116.6295399,park,,,,,
leisure,park,39.8330484,116.6292481,park,,,,,
leisure,park,39.8306887,116.6291966,park,,,,,
leisure,park,39.830977,116.632279,park,,,,,
leisure,park,39.830949,116.6337356,park,,,,,
leisure,park,39.8307719,116.6387912,park,,,,,
leisure,park,39.8303291,116.6415527,park,,,,,
leisure,park,39.8304829,116.6367641,park,,,,,
leisure,park,39.8306134,116.6330923,park,,,,,
leisure,park,39.800631,116.6229524,park,,,,,
leisure,park,39.850542,116.5550132,park,,,,,
leisure,park,39.8495453,116.5549833,park,,,,,
leisure,park,40.1797586,116.3875694,park,,,,,
leisure,park,39.7640814,116.1641561,park,,,,,
leisure,park,39.7715237,116.1575089,park,加州水郡森林公园,,,,
leisure,park,39.7606604,116.1479459,park,翠林漫步公园,,,,
leisure,park,39.7546581,116.1384323,park,伊林郡公园,,,,
leisure,park,39.971603,116.2403062,park,,,,,
leisure,park,39.9715164,116.2490414,park,闵庄公园,,,,
leisure,park,39.9733781,116.2239676,park,,,,,
leisure,park,39.9663586,116.2366904,park,,,,,
leisure,park,39.9705588,116.234372,park,,,,,
leisure,park,39.9620419,116.2382502,park,,,,,
leisure,park,39.9307566,116.6213609,park,,,,,
leisure,park,39.9910368,116.1972937,garden,,,,,
leisure,park,39.8882124,116.3661883,park,广阳谷城市森林,,,,
leisure,park,39.7615745,116.3394095,park,,,,,
leisure,park,39.8235408,116.3636644,park,,,,,
leisure,park,39.8263197,116.3626694,park,,,,,
leisure,park,39.7219804,116.3906915,park,,,,,
leisure,park,39.7258547,116.3091368,park,,,,,
leisure,park,39.7252831,116.3085281,park,,,,,
leisure,park,39.7552531,116.3005637,park,,,,,
leisure,park,39.9931543,116.2984634,garden,,,,,
leisure,park,39.9938418,116.3028148,garden,,,,,
leisure,park,39.9941519,116.2994798,garden,,,,,
leisure,park,39.8877638,116.1037285,park,七彩花田街心公园,,,,
leisure,park,39.8894636,116.104469,park,,,,,
leisure,park,39.8907718,116.1124613,park,上园路休闲公园,,,,
leisure,park,39.890525,116.1166794,park,,,,,
leisure,park,39.8895051,116.1176019,park,,,,,
leisure,park,39.8901757,116.1199385,park,,,,,
leisure,park,39.8884155,116.1185183,park,,,,,
leisure,park,39.8930349,116.1210188,park,,,,,
leisure,park,39.901011,116.1254432,park,,,,,
leisure,park,39.9114902,116.1256033,park,,,,,
leisure,park,39.9186081,116.1239,park,,,,,
leisure,park,39.7648046,116.2043286,park,,,,,
leisure,park,39.7563934,116.1957922,park,张家场悦畅园口袋公园,,,,
leisure,park,39.7575392,116.1955163,park,长阳体育公园,,,,
leisure,park,39.7545777,116.2088373,park,,,,,
leisure,park,39.7342643,116.171985,park,良乡大学城公园·科苑,,,,
leisure,park,39.729388,116.1720565,park,良乡大学城公园·文苑,,,,
leisure,park,39.7221487,116.1746345,park,,,,,
leisure,park,39.7110488,116.1763674,park,,,,,
leisure,park,39.7114802,116.1763728,park,,,,,
leisure,park,39.7145707,116.1764056,park,,,,,
leisure,park,39.7171526,116.1764228,park,,,,,
leisure,park,39.7115369,116.1482725,park,,,,,
leisure,park,39.719376,116.148864,park,,,,,
leisure,park,39.7233569,116.1374037,park,,,,,
leisure,park,39.7237352,116.1361353,park,,,,,
leisure,park,39.7117277,116.1176385,park,,,,,
leisure,park,39.722135,116.1062246,park,鹭园公园,,,,
leisure,park,39.7272815,116.0941043,park,,,,,
leisure,park,39.7263408,116.0998603,park,,,,,
leisure,park,39.7266833,116.092511,park,,,,,
leisure,park,39.7171091,116.0808558,park,,,,,
leisure,park,39.9221821,116.1720895,park,,,,,
leisure,park,39.9230866,116.1808708,park,休闲健身广场,,,,
leisure,park,39.9239247,116.1813098,park,,,,,
leisure,park,39.9246445,116.1832478,park,,,,,
leisure,park,39.9231547,116.192109,park,,,,,
leisure,park,39.9230345,116.1994402,park,,,,,
leisure,park,39.926289,116.1674812,park,,,,,
leisure,park,39.9355153,116.1642246,park,,,,,
leisure,park,39.9347214,116.1681621,park,,,,,
leisure,park,40.0829421,116.3560362,park,,,,,
leisure,park,39.9270182,116.1596828,park,,,,,
leisure,park,39.9283497,116.1589674,park,,,,,
leisure,park,39.927709,116.1599972,park,,,,,
leisure,park,39.9275153,116.1575685,park,,,,,
leisure,park,39.9265877,116.1590355,park,,,,,
leisure,park,39.9262078,116.1581174,park,,,,,
leisure,park,39.9247289,116.1576219,park,,,,,
leisure,park,39.9245203,116.1598758,park,,,,,
leisure,park,39.9263046,116.1644904,park,,,,,
leisure,park,39.9253286,116.1636355,park,,,,,
leisure,park,39.9258613,116.1599341,park,,,,,
leisure,park,39.9236076,116.1656611,park,,,,,
leisure,park,39.9240137,116.155062,park,,,,,
leisure,park,39.9227545,116.1584234,park,,,,,
leisure,park,39.9230339,116.1670358,park,,,,,
leisure,park,39.9227843,116.1683522,park,,,,,
leisure,park,39.9248779,116.1676235,park,,,,,
leisure,park,39.9314339,116.1509526,park,,,,,
leisure,park,39.9366197,116.1617669,park,,,,,
leisure,park,39.9849876,116.6664201,park,,,,,
leisure,park,40.0522473,116.2972822,park,,,,,
leisure,park,39.8133171,116.3907872,garden,和义西里小区花园,,,,
leisure,park,39.769803,116.274744,garden,四时花坡,,,,
leisure,park,39.7901365,116.2644526,garden,四季花圃,,,,
leisure,park,39.7763231,116.2838583,park,,,,,
leisure,park,39.7898826,116.2725598,park,狼垡公园,,,,
leisure,park,39.7827832,116.286254,park,北京中华文化园,,,,
leisure,park,39.7781349,116.2886254,park,,,,,
leisure,park,39.8252502,116.3089069,park,,,,,
leisure,park,39.8024922,116.4225251,park,,,,,
leisure,park,39.8006385,116.4206663,park,,,,,
leisure,park,39.7870785,116.4229713,park,,,,,
leisure,park,39.7683875,116.4338995,park,瀛海休闲公园,,,,
leisure,park,39.7648218,116.4367807,park,,,,,
leisure,park,39.8023057,116.452861,park,德寿寺公园,,,,
leisure,park,39.7965581,116.3221055,park,兴华公园东区,,,,
leisure,park,39.7950165,116.3215858,park,兴华公园西区,,,,
leisure,park,39.8168509,116.3236258,park,,,,,
leisure,park,39.8175629,116.3237974,park,,,,,
leisure,park,39.8024121,116.3078911,park,白盆窑花园,,,,
leisure,park,39.7788363,116.3692671,park,老三余公园,,,,
leisure,park,39.8666925,116.5655087,park,豆各庄城市公园东园,,,,
leisure,park,40.0668024,116.2367819,park,,,,,
leisure,park,40.0697946,116.2428995,park,,,,,
leisure,park,40.0634517,116.2544071,park,,,,,
leisure,park,39.8149713,116.5332877,garden,,,,,
leisure,park,39.8154975,116.5344774,garden,,,,,
leisure,park,39.8183512,116.5373934,garden,,,,,
leisure,park,39.8196044,116.5361635,garden,,,,,
leisure,park,39.815886,116.5349748,garden,,,,,
leisure,park,39.8172712,116.5376724,garden,,,,,
leisure,park,39.9377835,116.6924875,park,,,,,
leisure,park,39.9349282,116.6887462,park,,,,,
leisure,park,39.9223701,116.6560916,park,,,,,
leisure,park,39.9360368,116.700752,park,,,,,
leisure,park,39.9292539,116.7008833,park,,,,,
leisure,park,39.9278059,116.7014992,park,,,,,
leisure,park,39.9273413,116.7001259,park,,,,,
leisure,park,39.9263269,116.699308,park,,,,,
leisure,park,39.9208636,116.7013923,park,,,,,
leisure,park,39.8869904,116.7569059,park,,,,,
leisure,park,39.8927322,116.6057063,park,月牙河连心休闲公园,,,,
leisure,park,39.8633093,116.3192525,park,,,,,
leisure,park,39.8606637,116.3124126,park,丽泽金融商务区城市运动休闲公园,,,,
leisure,park,39.8591237,116.3236084,park,,,,,
leisure,park,39.8592717,116.3194271,park,,,,,
leisure,park,39.8587412,116.3166961,park,,,,,
leisure,park,39.8643159,116.3381566,park,,,,,
leisure,park,39.9645378,116.5376117,park,,,,,
leisure,park,39.9620363,116.5376117,park,,,,,
leisure,park,39.9459992,116.5194362,park,,,,,
leisure,park,39.9572058,116.5375814,park,,,,,
leisure,park,39.9640749,116.5783862,park,,,,,
leisure,park,39.9635804,116.5691755,park,,,,,
leisure,park,39.9552157,116.5866772,park,,,,,
leisure,park,39.9571202,116.6006785,park,,,,,
leisure,park,39.9595826,116.5787651,park,,,,,
leisure,park,39.9434499,116.5824345,park,,,,,
leisure,park,39.9424454,116.5816291,park,,,,,
leisure,park,39.9388474,116.5752502,park,,,,,
leisure,park,39.7930493,116.5397109,park,,,,,
leisure,park,39.7294361,116.1235201,park,,,,,
leisure,park,39.7220624,116.1268122,park,赛纳园,,,,
leisure,park,39.8797212,116.3040135,park,,,,,
leisure,park,39.8760161,116.3047216,park,,,,,
leisure,park,39.7312319,116.3505168,park,,,,,
leisure,park,39.7023719,116.285272,park,,,,,
leisure,park,39.713615,116.3160391,park,,,,,
leisure,park,39.8305394,116.2924077,park,,,,,
leisure,park,39.8301442,116.2963501,park,,,,,
leisure,park,39.8343472,116.288466,park,,,,,
leisure,park,39.833065,116.2842726,park,,,,,
leisure,park,39.830886,116.2856187,park,,,,,
leisure,park,39.8291591,116.2864552,park,,,,,
leisure,park,39.8289747,116.2937433,park,,,,,
leisure,park,39.8283796,116.2949064,park,,,,,
leisure,park,39.8267135,116.2920203,park,,,,,
leisure,park,39.8267582,116.2934827,park,,,,,
leisure,park,39.8293316,116.2843791,park,,,,,
leisure,park,39.8281713,116.2842338,park,,,,,
leisure,park,39.8299786,116.2833331,park,,,,,
leisure,park,39.8312578,116.2822194,park,,,,,
leisure,park,39.8320087,116.2816906,park,,,,,
leisure,park,39.8312578,116.2832944,park,,,,,
leisure,park,39.8302835,116.285425,park,,,,,
leisure,park,39.8297332,116.2849214,park,,,,,
leisure,park,39.8308116,116.2830329,park,,,,,
leisure,park,39.8278887,116.2871102,park,,,,,
leisure,park,39.8261259,116.2915361,park,,,,,
leisure,park,39.8261408,116.2954294,park,,,,,
leisure,park,39.8289448,116.2971048,park,,,,,
leisure,park,39.8213284,116.2921365,park,,,,,
leisure,park,39.8213582,116.2906645,park,,,,,
leisure,park,39.8237012,116.2904998,park,,,,,
leisure,park,39.8236937,116.2876622,park,,,,,
leisure,park,39.8212912,116.2877106,park,,,,,
leisure,park,39.8200862,116.2877591,park,,,,,
leisure,park,39.8217078,116.2845631,park,,,,,
leisure,park,39.8237681,116.2822484,park,,,,,
leisure,park,39.8304844,116.2771196,park,,,,,
leisure,park,39.8264391,116.2775002,park,,,,,
leisure,park,39.8250441,116.2794204,park,,,,,
leisure,park,39.8243068,116.2811935,park,,,,,
leisure,park,39.82248,116.2735474,park,,,,,
leisure,park,39.8219552,116.2743518,park,,,,,
leisure,park,39.8207395,116.2727258,park,,,,,
leisure,park,39.8207661,116.2755974,park,,,,,
leisure,park,39.8216097,116.2778635,park,,,,,
leisure,park,39.8214769,116.2796799,park,,,,,
leisure,park,39.8214038,116.2786333,park,,,,,
leisure,park,39.9961207,116.3008165,garden,,,,,
leisure,park,39.8736338,116.2912694,park,,,,,
leisure,park,40.0345727,116.2608826,park,,,,,
leisure,park,39.9490719,116.5698504,park,,,,,
leisure,park,39.9540427,116.6098608,park,,,,,
leisure,park,39.9920914,116.2176468,park,,,,,
leisure,park,39.9922311,116.2216789,park,,,,,
leisure,park,39.9905125,116.2153516,park,,,,,
leisure,park,39.990395,116.2159377,park,,,,,
leisure,park,40.1707949,116.3246639,park,,,,,
leisure,park,40.170749,116.3293702,park,,,,,
leisure,park,40.1600007,116.2407933,park,,,,,
leisure,park,40.1715785,116.2391599,park,,,,,
leisure,park,40.1702997,116.2392687,park,,,,,
leisure,park,40.1715594,116.238616,park,,,,,
leisure,park,40.1717576,116.2383315,park,,,,,
leisure,park,40.1724801,116.2371181,park,,,,,
leisure,park,40.1696795,116.2364487,park,,,,,
leisure,park,40.1693598,116.2342647,park,,,,,
leisure,park,40.1692511,116.2338379,park,,,,,
leisure,park,40.168471,116.236683,park,,,,,
leisure,park,40.1699289,116.2378712,park,,,,,
leisure,park,40.1700887,116.2409088,park,,,,,
leisure,park,40.1701654,116.2374947,park,,,,,
leisure,park,40.1710734,116.2345157,park,,,,,
leisure,park,40.1747819,116.2350429,park,,,,,
leisure,park,40.1798098,116.2534874,park,,,,,
leisure,park,40.1611614,116.242125,park,西王路游园,,,,
leisure,park,40.1510957,116.2624144,park,,,,,
leisure,park,40.1438898,116.274946,park,,,,,
leisure,park,40.1361781,116.2719795,park,,,,,
leisure,park,40.1374483,116.2680323,park,,,,,
leisure,park,39.8701748,116.4834373,garden,,,,,
leisure,park,39.8697846,116.4834047,garden,,,,,
leisure,park,39.8723014,116.4826513,garden,,,,,
leisure,park,39.8782817,116.4969937,park,,,,,
leisure,park,40.0469839,116.3127683,garden,,,,,
leisure,park,40.0471675,116.3127302,garden,,,,,
leisure,park,39.8912871,116.6920531,park,,,,,
leisure,park,39.9056444,116.3548811,park,,,,,
leisure,park,39.9063466,116.3573328,park,,,,,
leisure,park,39.8776783,116.7065492,park,,,,,
leisure,park,39.9221931,116.5032973,park,,,,,
leisure,park,39.9016459,116.5073326,park,,,,,
leisure,park,39.9783349,116.5023882,park,,,,,
leisure,park,39.9874095,116.4992624,park,,,,,
leisure,park,40.13265,116.4801011,park,,,,,
leisure,park,39.9153913,116.701634,park,,,,,
leisure,park,39.90233,116.6574914,park,,,,,
leisure,park,39.9039141,116.6575739,garden,,,,,
leisure,park,39.904446,116.6573428,garden,,,,,
leisure,park,39.9046693,116.6530231,garden,,,,,
leisure,park,39.8566001,116.3415563,park,丰宜公园,,,,
leisure,park,39.8157901,116.3833613,park,南苑森林湿地公园B片区,,,,
leisure,park,39.7376694,116.1401027,garden,,,,,
leisure,park,39.7324044,116.1460011,park,昊天公园,,,,
leisure,park,39.7409927,116.1433419,garden,,,,,
leisure,park,39.7408212,116.143698,garden,,,,,
leisure,park,39.7390107,116.1397768,garden,,,,,
leisure,park,39.7422366,116.1429304,garden,,,,,
leisure,park,39.7422749,116.1435432,garden,,,,,
leisure,park,39.7398195,116.1462371,garden,,,,,
leisure,park,39.7374978,116.1475389,garden,,,,,
leisure,park,39.7387541,116.1473988,garden,,,,,
leisure,park,39.7371604,116.1441922,garden,,,,,
leisure,park,39.7375406,116.1436967,garden,,,,,
leisure,park,39.7382253,116.1456177,garden,,,,,
leisure,park,39.9272508,116.2039272,park,芳秀园,,,,
leisure,park,39.923236,116.4133107,garden,,,,,
leisure,park,39.8756879,116.3692135,garden,,,,,
leisure,park,39.8761475,116.3689552,garden,,,,,
leisure,park,39.9551284,116.3206855,park,,,,,
leisure,park,39.8754662,116.6991823,park,,,,,
leisure,park,39.8845297,116.6877845,park,,,,,
leisure,park,39.9622324,116.6087663,park,,,,,
leisure,park,39.9366349,116.6221696,park,,,,,
leisure,park,39.9301699,116.6236796,park,,,,,
leisure,park,39.9574645,116.6426449,park,,,,,
leisure,park,39.952174,116.6390109,park,,,,,
leisure,park,39.9282037,116.2015984,garden,,,,,
leisure,park,39.9281686,116.2011669,garden,,,,,
leisure,park,39.9285099,116.2031642,garden,,,,,
leisure,park,39.9285088,116.2036148,garden,,,,,
leisure,park,39.9285675,116.2042123,garden,,,,,
leisure,park,39.9283196,116.2042128,garden,,,,,
leisure,park,39.9287607,116.2010147,garden,,,,,
leisure,park,39.9277466,116.2039212,garden,,,,,
leisure,park,39.9284944,116.2019605,garden,,,,,
leisure,park,39.9284898,116.2025732,garden,,,,,
leisure,park,39.9267906,116.2001355,garden,,,,,
leisure,park,39.9255079,116.2011895,garden,,,,,
leisure,park,39.9255103,116.2017353,garden,,,,,
leisure,park,39.9252834,116.2018264,garden,,,,,
leisure,park,39.9252787,116.2011953,garden,,,,,
leisure,park,39.9242581,116.2009057,park,,,,,
leisure,park,39.9243452,116.2024919,park,志秀园,,,,
leisure,park,39.9284767,116.1990547,garden,,,,,
leisure,park,39.9281793,116.2003936,garden,,,,,
leisure,park,39.9275578,116.1996052,garden,,,,,
leisure,park,39.9284879,116.1998102,garden,,,,,
leisure,park,39.9262106,116.2025006,garden,,,,,
leisure,park,39.9287557,116.201599,garden,,,,,
leisure,park,39.9283787,116.2015965,garden,,,,,
leisure,park,39.927389,116.2039314,garden,,,,,
leisure,park,39.8795814,116.3646568,garden,,,,,
leisure,park,39.9282053,116.1989883,garden,,,,,
leisure,park,39.8727995,116.6993481,park,金隅通和园北区绿地,,,,
leisure,park,39.8721327,116.6982549,park,,,,,
leisure,park,39.8688254,116.6983414,garden,,,,,
leisure,park,39.8690848,116.689668,park,,,,,
leisure,park,39.8685955,116.6906296,park,,,,,
leisure,park,39.8680352,116.6935005,park,绿韵园,,,,
leisure,park,39.919224,116.3334113,park,,,,,
leisure,park,39.9572297,116.2464405,park,西郊机场周边区域绿化建设,,,,
leisure,park,39.848542,116.6721409,garden,,,,,
leisure,park,39.8489367,116.67188,garden,,,,,
leisure,park,39.8491638,116.6725681,garden,,,,,
leisure,park,39.8488226,116.6730373,garden,,,,,
leisure,park,39.8489118,116.6728785,garden,,,,,
leisure,park,39.8735052,116.5601212,park,,,,,
leisure,park,39.8733041,116.5598678,park,原乡公园,,,,
leisure,park,39.8734568,116.5582134,park,,,,,
leisure,park,39.8685359,116.5631887,park,,,,,
leisure,park,39.8719935,116.5672183,park,川安公园,,,,
leisure,park,39.8721769,116.5728105,park,,,,,
leisure,park,39.8739535,116.5668488,park,,,,,
leisure,park,39.8827575,116.5955866,park,,,,,
leisure,park,39.8876719,116.5659376,park,,,,,
leisure,park,39.8841426,116.5647453,park,,,,,
leisure,park,39.8667646,116.5678312,park,,,,,
leisure,park,39.8671341,116.5729431,park,,,,,
leisure,park,39.8778841,116.6049764,park,,,,,
leisure,park,39.8671904,116.6061909,park,,,,,
leisure,park,39.8623737,116.5962923,park,,,,,
leisure,park,39.8622105,116.6070694,park,,,,,
leisure,park,39.9378183,116.3465156,garden,,,,,
leisure,park,39.8500771,116.6721324,garden,,,,,
leisure,park,39.8511374,116.6715079,garden,,,,,
leisure,park,39.8510502,116.6719573,garden,,,,,
leisure,park,39.8506359,116.6723601,garden,,,,,
leisure,park,39.851575,116.6706249,garden,,,,,
leisure,park,39.842693,116.658315,park,,,,,
leisure,park,39.8437814,116.657397,park,,,,,
leisure,park,39.8409876,116.6702785,park,,,,,
leisure,park,39.8412479,116.6691112,park,,,,,
leisure,park,39.8455016,116.6479541,park,,,,,
leisure,park,39.8505301,116.6722591,garden,,,,,
leisure,park,39.9960269,116.3294794,garden,,,,,
leisure,park,39.8545614,116.6788102,garden,,,,,
leisure,park,39.8545902,116.6785503,garden,,,,,
leisure,park,39.850359,116.3434941,park,,,,,
leisure,park,39.8621672,116.3189707,park,,,,,
leisure,park,39.911092,116.1862404,park,古城公园,,,,
leisure,park,39.8474103,116.4562748,park,,,,,
leisure,park,39.9520988,116.2913744,park,南长河公园,,,,
leisure,park,39.9534208,116.2916436,park,世纪之翼,,,,
leisure,park,39.9693753,116.4126977,garden,,,,,
leisure,park,39.927978,116.199837,park,灵秀园,,,,
leisure,park,39.8495818,116.6727326,garden,,,,,
leisure,park,39.8521862,116.6727454,garden,,,,,
leisure,park,39.8519693,116.6724378,garden,,,,,
leisure,park,39.8518949,116.6725534,garden,,,,,
leisure,park,39.8524393,116.6723548,garden,,,,,
leisure,park,39.8526831,116.6724184,garden,,,,,
leisure,park,39.8526083,116.6725694,garden,,,,,
leisure,park,39.8523643,116.6722642,garden,,,,,
leisure,park,39.8526679,116.6722809,garden,,,,,
leisure,park,39.8517066,116.6727443,garden,,,,,
leisure,park,39.8518615,116.6728588,garden,,,,,
leisure,park,39.8520666,116.6730973,garden,,,,,
leisure,park,39.8524404,116.6724831,garden,,,,,
leisure,park,39.8525627,116.6727215,garden,,,,,
leisure,park,39.8520755,116.6726051,garden,,,,,
leisure,park,39.8520493,116.6727869,garden,,,,,
leisure,park,39.8525137,116.6721251,garden,,,,,
leisure,park,39.8524505,116.6719163,garden,,,,,
leisure,park,39.8522736,116.6721198,garden,,,,,
leisure,park,39.9471147,116.3739818,park,德胜公园,,,,
leisure,park,40.0331908,116.2981837,park,,,,,
leisure,park,40.0309018,116.3010771,park,,,,,
leisure,park,40.0292843,116.3000529,park,,,,,
leisure,park,40.1139103,116.3380624,park,,,,,
leisure,park,40.1136658,116.3349846,garden,,,,,
leisure,park,40.1137843,116.3364093,garden,,,,,
leisure,park,40.1135953,116.332925,park,,,,,
leisure,park,40.1100076,116.3388837,park,,,,,
leisure,park,40.1097291,116.3472216,park,,,,,
leisure,park,40.0082898,116.3850188,park,,,,,
leisure,park,40.0052986,116.3850871,park,,,,,
leisure,park,40.003301,116.3852799,park,,,,,
leisure,park,40.0034296,116.3897187,park,,,,,
leisure,park,40.0004423,116.3853482,park,,,,,
leisure,park,39.9968541,116.3658251,park,塔院城市森林公园北园,,,,
leisure,park,39.9923896,116.3683642,park,塔院城市森林公园南园,,,,
leisure,park,40.0086312,116.3569151,park,,,,,
leisure,park,40.0085876,116.3555206,park,,,,,
leisure,park,40.0134164,116.352592,park,,,,,
leisure,park,40.0200316,116.3503401,park,,,,,
leisure,park,40.0663852,116.4123626,park,,,,,
leisure,park,39.9574393,116.2932245,garden,,,,,
leisure,park,40.0835407,116.4906898,park,鲁能泰山体育公园,,,,
leisure,park,40.0759246,116.5013999,park,一汽丰田TNGA驾控体验公园,,,,
leisure,park,39.7994653,116.2824947,park,,,,,
leisure,park,39.8617081,116.2981581,park,,,,,
leisure,park,39.7407697,116.1666311,park,良乡大学城公园·体苑,,,,
leisure,park,39.7333769,116.1771001,park,,,,,
leisure,park,39.7350496,116.1772007,park,,,,,
leisure,park,39.7356354,116.1773061,park,,,,,
leisure,park,39.7373953,116.173494,park,,,,,
leisure,park,39.7411296,116.1666343,park,,,,,
leisure,park,39.7524001,116.1616857,park,,,,,
leisure,park,39.8506442,116.4823036,park,,,,,
leisure,park,39.8529175,116.4837842,park,,,,,
leisure,park,39.8555201,116.4821319,park,,,,,
leisure,park,39.7328477,116.1611299,park,,,,,
leisure,park,39.7488847,116.4810032,park,,,,,
leisure,park,39.7482611,116.4764736,park,,,,,
leisure,park,39.7576017,116.4272423,park,,,,,
leisure,park,39.7548069,116.4269449,park,,,,,
leisure,park,39.7645906,116.4265738,park,,,,,
leisure,park,39.7350636,116.4512519,park,盛世南宫影视文化城,,,,
leisure,park,39.736701,116.4538835,park,安南湿地环保主题公园,,,,
leisure,park,39.8052329,116.4565912,park,,,,,
leisure,park,39.805123,116.4573734,park,,,,,
leisure,park,39.9557131,116.4619494,park,,,,,
leisure,park,40.0398729,116.3553585,park,永泰绿色生态园,,,,
leisure,park,40.1068149,116.5544416,park,兴峪城市森林公园,,,,
leisure,park,40.1053495,116.5566233,park,,,,,
leisure,park,40.1056476,116.5488501,park,兴峪城市森林公园西区,,,,
leisure,park,40.0352287,116.4934534,park,何里栖地公园南区,,,,
leisure,park,39.922596,116.2641176,park,阜石路南侧绿地公园东区,,,,
leisure,park,40.1257408,116.1957354,park,威凯居住区绿地公园,,,,
leisure,park,40.0436896,116.258644,park,首师大附中口袋公园,,,,
leisure,park,39.7437432,116.0806046,park,张庄村头公园,,,,
leisure,park,39.9121786,116.7240169,park,,,,,
leisure,park,39.6811144,116.2221094,park,北臧村镇郊野公园,,,,
leisure,park,40.1664008,116.3801043,park,官牛坊村城市景观型森林公园,,,,
leisure,park,39.7672498,116.1738938,park,合景领峰休闲公园,,,,
leisure,park,39.7660228,116.1731837,park,,,,,
leisure,park,39.7687239,116.1838465,park,,,,,
leisure,park,39.7719468,116.1772466,park,,,,,
leisure,park,39.771631,116.1844734,park,,,,,
leisure,park,40.0722519,116.1609752,park,,,,,
leisure,park,39.8284092,116.2007293,park,长辛店公园,,,,
leisure,park,39.8364159,116.1808352,park,,,,,
leisure,park,39.8334871,116.180027,park,,,,,
leisure,park,39.8337438,116.1796093,park,长体城市休闲公园,,,,
leisure,park,39.9128468,116.3366513,garden,,,,,
leisure,park,39.9136163,116.3360477,garden,,,,,
leisure,park,39.9128523,116.3360376,garden,,,,,
leisure,park,39.9157382,116.3364823,garden,,,,,
leisure,park,39.8513108,116.6714263,garden,,,,,
leisure,park,39.8509429,116.6717992,garden,,,,,
leisure,park,40.0810266,116.524927,park,安华街公园,,,,
leisure,park,40.100249,116.4613614,park,温榆河公园·未来智谷,,,,
leisure,park,40.0873048,116.2556293,park,辛店家园东侧绿地,,,,
leisure,park,40.0017045,116.2576997,park,功德寺地区绿化工程,,,,
leisure,park,40.001755,116.2610372,park,,,,,
leisure,park,39.9600341,116.2472654,park,西郊机场周边区域绿化建设,,,,
leisure,park,40.0396777,116.3990633,park,陈营东西桥公园,,,,
leisure,park,39.9753612,116.4379826,park,太阳宫安馨花园,,,,
leisure,park,39.9745925,116.4343281,park,,,,,
leisure,park,40.0808499,116.3084851,park,国仕汇小区东北角绿地,,,,
leisure,park,40.0823078,116.3259791,park,云趣园二区东南角绿地,,,,
leisure,park,40.1378263,116.6240251,park,前进花园街旁绿地,,,,
leisure,park,39.9833274,116.3023024,garden,,,,,
leisure,park,39.9833968,116.3023013,garden,,,,,
leisure,park,39.9827775,116.3028472,garden,,,,,
leisure,park,39.9828494,116.3025298,garden,,,,,
leisure,park,39.9930318,116.4742683,park,,,,,
leisure,park,39.9989252,116.483306,park,,,,,
leisure,park,40.0001359,116.4807347,park,,,,,
leisure,park,39.9961748,116.4845377,park,,,,,
leisure,park,39.9976892,116.4841535,park,,,,,
leisure,park,39.7508329,116.3021567,park,上泽公园,,,,
leisure,park,39.716385,116.3682963,park,,,,,
leisure,park,39.7198468,116.4158158,park,,,,,
leisure,park,39.6982667,116.3696162,park,桂村文化广场,,,,
leisure,park,39.7602147,116.4032988,park,金海公园,,,,
leisure,park,39.7479887,116.3759409,park,团河行宫遗址公园,,,,
leisure,park,39.6973325,116.5219627,park,大迴城休闲公园,,,,
leisure,park,39.6882329,116.5418616,park,,,,,
leisure,park,39.6899573,116.4769217,park,,,,,
leisure,park,39.6879781,116.5872188,park,,,,,
leisure,park,40.0016137,116.4810218,park,,,,,
leisure,park,40.0038147,116.4720189,park,,,,,
leisure,park,40.0033504,116.4761958,park,,,,,
leisure,park,39.8723327,116.4825292,garden,,,,,
leisure,park,39.8678336,116.483472,garden,,,,,
leisure,park,39.8697338,116.4870849,garden,,,,,
leisure,park,39.8710862,116.4852302,garden,,,,,
leisure,park,39.8722277,116.4833848,garden,,,,,
leisure,park,39.7412801,116.1881941,park,小清河露营公园,,,,
leisure,park,39.7214669,116.166717,park,,,,,
leisure,park,39.713145,116.1840105,park,,,,,
leisure,park,39.715367,116.177871,park,,,,,
leisure,park,39.7168392,116.1778302,park,,,,,
leisure,park,39.870147,116.4794849,garden,,,,,
leisure,park,39.8698804,116.4794882,garden,,,,,
leisure,park,39.8359294,116.3270048,park,,,,,
leisure,park,39.9042004,116.4797686,park,,,,,
leisure,park,39.9040488,116.4782228,park,,,,,
leisure,park,39.7271459,116.1764387,park,,,,,
leisure,park,39.7273214,116.1764147,park,,,,,
leisure,park,39.7319824,116.1765889,park,,,,,
leisure,park,39.7216755,116.1746369,park,,,,,
leisure,park,39.7318865,116.1780399,park,,,,,
leisure,park,39.7332771,116.1781299,park,,,,,
leisure,park,39.7350453,116.1780808,park,,,,,
leisure,park,39.7350783,116.1893446,park,房山新城滨水森林公园,,,,
leisure,park,39.7294766,116.1831894,park,,,,,
leisure,park,39.7294051,116.1779015,park,,,,,
leisure,park,40.0508577,116.5664404,park,天竺公园,,,,
leisure,park,40.018162,116.5026008,park,,,,,
leisure,park,39.9831416,116.3461382,park,,,,,
leisure,park,39.9810861,116.3436885,park,,,,,
leisure,park,39.9848364,116.3414924,park,,,,,
leisure,park,39.8808301,116.4846459,park,,,,,
leisure,park,39.8812472,116.4842908,park,,,,,
leisure,park,39.8677842,116.4829248,garden,,,,,
leisure,park,39.8678336,116.4821503,garden,,,,,
leisure,park,39.8708258,116.4902298,park,,,,,
leisure,park,39.8702021,116.4894922,garden,,,,,
leisure,park,39.8741102,116.4841694,park,,,,,
leisure,park,39.8745415,116.4857157,garden,,,,,
leisure,park,39.8746691,116.4842136,garden,,,,,
leisure,park,39.9757902,116.31968,park,,,,,
leisure,park,39.7127178,116.392058,park,,,,,
leisure,park,39.9265679,116.1990725,park,,,,,
leisure,park,39.9265705,116.1986644,garden,,,,,
leisure,park,39.9570587,116.2905273,garden,,,,,
leisure,park,39.9568778,116.2898111,garden,,,,,
leisure,park,39.9570011,116.2949905,garden,,,,,
leisure,park,39.8681633,116.5088507,park,个园,,,,
leisure,park,39.7951074,116.571723,park,,,,,
leisure,park,39.7955958,116.5739035,park,,,,,
leisure,park,39.7661097,116.3419196,park,,,,,
leisure,park,39.7662325,116.3422422,park,,,,,
leisure,park,39.941015,116.2100551,park,,,,,
leisure,park,39.9355722,116.2045701,park,,,,,
leisure,park,39.9323703,116.1941233,park,大槐树公园,,,,
leisure,park,39.9387898,116.1941387,park,,,,,
leisure,park,39.9472297,116.3729993,garden,,,,,
leisure,park,39.8747578,116.4734045,park,,,,,
leisure,park,39.8747578,116.4737693,park,,,,,
leisure,park,39.8764057,116.4723965,park,,,,,
leisure,park,39.9060149,116.4248066,park,,,,,
leisure,park,39.8927922,116.1115031,park,,,,,
leisure,park,39.8917786,116.1145892,park,,,,,
leisure,park,39.8687384,116.0800061,garden,,,,,
leisure,park,39.9680946,116.2680912,park,,,,,
leisure,park,40.0792826,116.5496302,park,,,,,
leisure,park,40.0702313,116.5509249,park,,,,,
leisure,park,39.7356729,116.1190722,park,北潞园健身公园,,,,
leisure,park,39.7108493,116.1219804,park,,,,,
leisure,park,39.7126094,116.1238649,park,,,,,
leisure,park,39.8692125,116.3608185,park,,,,,
leisure,park,39.9714018,116.3239129,garden,,,,,
leisure,park,39.9703644,116.3216191,garden,,,,,
leisure,park,40.1124451,116.1361616,park,,,,,
leisure,park,40.1125074,116.1357439,park,,,,,
leisure,park,40.1129326,116.4897911,park,温榆河公园·故城记忆,,,,
leisure,park,39.9996461,116.5480869,park,,,,,
leisure,park,39.7408267,116.1610351,park,,,,,
leisure,park,39.9964488,116.3914843,park,国学公园,,,,
leisure,park,40.0145555,116.3625764,park,,,,,
leisure,park,39.881473,116.4263631,park,,,,,
leisure,park,39.8464883,116.4693133,park,桃溪公园,,,,
leisure,park,39.8477813,116.4678946,park,桃溪公园,,,,
leisure,park,40.0415764,116.5284292,park,孙河郊野公园,,,,
leisure,park,40.0364733,116.5263379,park,,,,,
leisure,park,40.0304636,116.5222781,park,,,,,
leisure,park,40.0430202,116.5234651,park,绿化用地,,,,
leisure,park,40.0427142,116.52485,park,绿化用地,,,,
leisure,park,40.0444902,116.5146264,park,,,,,
leisure,park,39.8367306,116.2378548,park,晓月山体公园,,,,
leisure,park,40.0470638,116.1981428,park,画眉山滨水公园,,,,
leisure,park,40.0637724,116.2698814,park,,,,,
leisure,park,39.9773022,116.5791447,park,朝阳丽泽公园,,,,
leisure,park,39.9957274,116.3298113,park,,,,,
leisure,park,39.9458545,116.4370642,park,,,,,
leisure,park,39.9451767,116.4384535,park,,,,,
leisure,park,39.9688279,116.4983255,park,滨河花园,,,,
leisure,park,39.9704924,116.4967266,park,驼房营公园,,,,
leisure,park,39.9705643,116.4923384,park,,,,,
leisure,park,40.0369104,116.2655489,park,,,,,
leisure,park,40.1653669,116.255701,park,,,,,
leisure,park,40.1669268,116.2609358,park,,,,,
leisure,park,40.1614468,116.2293671,park,,,,,
leisure,park,40.1641991,116.2294249,park,,,,,
leisure,park,40.0308988,116.4235896,park,,,,,
leisure,park,40.0275624,116.423713,park,,,,,
leisure,park,39.9211704,116.4598705,park,呼家楼社区公园,,,,
leisure,park,40.0040384,116.5330434,park,,,,,
leisure,park,40.009321,116.4823917,park,,,,,
leisure,park,39.9325247,116.5586835,park,,,,,
leisure,park,39.9167589,116.5156775,park,,,,,
leisure,park,39.8915342,116.512155,park,,,,,
leisure,park,39.8484788,116.5619974,park,,,,,
leisure,park,40.0459946,116.4517685,park,,,,,
leisure,park,40.0491551,116.2652087,garden,,,,,
leisure,park,39.9657542,116.3849162,garden,,,,,
leisure,park,39.9378369,116.2817446,park,,,,,
leisure,park,39.93619,116.2814181,park,,,,,
leisure,park,39.9306057,116.2816285,park,,,,,
leisure,park,39.8809825,116.2426209,park,小瓦窑村休闲公园,,,,
leisure,park,39.8689802,116.2324248,park,,,,,
leisure,park,39.8667852,116.2512656,park,,,,,
leisure,park,39.8728897,116.2672395,park,,,,,
leisure,park,39.8646373,116.2587412,park,天昊文化广场,,,,
leisure,park,39.8732787,116.2201377,park,经仪公园,,,,
leisure,park,40.0811895,116.2289705,park,悦康公园,,,,
leisure,park,40.0788848,116.2212135,park,,,,,
leisure,park,40.0803611,116.226196,pitch,,,,basketball,
leisure,park,40.0801591,116.2255603,playground,,,,,
leisure,park,40.0800089,116.2249731,pitch,,,,soccer,
leisure,park,40.0798312,116.2243059,pitch,,,,multi,
leisure,park,40.0776382,116.2289903,park,,,,,
leisure,park,40.0822837,116.2287131,park,,,,,
leisure,park,39.9154304,116.205884,park,,,,,
leisure,park,39.9628216,116.3035872,garden,,,,,
leisure,park,39.948909,116.4031721,park,,,,,
leisure,park,39.7924345,116.2598748,park,北天堂公园北区,,,,
leisure,park,39.9090306,116.6589904,park,国防教育广场,,,,
leisure,park,39.8604002,116.3553084,park,,,,,
leisure,park,39.8671509,116.3513639,park,,,,,
leisure,park,39.8678923,116.3531591,park,,,,,
leisure,park,39.9332841,116.0859028,park,,,,,
leisure,park,39.9438391,116.3275317,park,,,,,
leisure,park,39.9394953,116.0886979,park,黑山公园,,,,
leisure,park,39.8375189,116.4145425,park,榴彩公园,,,,
leisure,park,39.8915148,116.2540734,park,青塔街心公园,,,,
leisure,park,40.0577824,116.3301549,park,,,,,
leisure,park,40.0405607,116.4051532,park,河滨公园,,,,
leisure,park,39.9244948,116.5430708,park,,,,,
leisure,park,39.9220544,116.5325154,park,,,,,
leisure,park,39.9221807,116.5270004,park,汇星苑城市森林公园,,,,
leisure,park,39.8155825,116.491926,park,横街子公园南区,,,,
leisure,park,39.8287816,116.494155,park,文化娱乐广场,,,,
leisure,park,39.8312793,116.4682346,park,,,,,
leisure,park,39.8303313,116.4704262,park,镇海寺城市公园,,,,
leisure,park,39.7908732,116.2537704,park,北天堂公园南区,,,,
leisure,park,39.960272,116.5225427,park,坝河休闲公园,,,,
leisure,park,39.9363102,116.7134858,park,,,,,
leisure,park,39.9367563,116.713297,park,,,,,
leisure,park,39.8539066,116.344959,park,,,,,
leisure,park,39.8577157,116.3479567,park,,,,,
leisure,park,39.9629633,116.3252577,garden,,,,,
leisure,park,39.9705333,116.1676704,park,,,,,
leisure,park,40.1103211,116.5284002,park,,,,,
leisure,park,40.1039479,116.5216871,park,,,,,
leisure,park,40.0032704,116.3780062,garden,,,,,
leisure,park,40.0033586,116.3797703,garden,,,,,
leisure,park,40.0026627,116.3785469,garden,,,,,
leisure,park,40.0023432,116.3788342,garden,,,,,
leisure,park,40.0024825,116.3781736,garden,,,,,
leisure,park,40.0023619,116.3795377,garden,,,,,
leisure,park,40.0024477,116.376145,garden,,,,,
leisure,park,40.0034354,116.3760023,garden,,,,,
leisure,park,40.0034641,116.3770949,garden,,,,,
leisure,park,40.0041341,116.3787265,garden,,,,,
leisure,park,40.0036933,116.3783219,garden,,,,,
leisure,park,40.0037114,116.378963,garden,,,,,
leisure,park,40.0036106,116.3759797,garden,,,,,
leisure,park,40.0041406,116.3770199,garden,,,,,
leisure,park,40.0051493,116.3797357,garden,,,,,
leisure,park,40.003355,116.3749998,garden,,,,,
leisure,park,40.0033118,116.3750016,garden,,,,,
leisure,park,40.0042591,116.3778344,garden,,,,,
leisure,park,40.0039613,116.3777495,garden,,,,,
leisure,park,39.8755881,116.3691359,garden,,,,,
leisure,park,39.8758547,116.3690054,garden,,,,,
leisure,park,39.875252,116.3688456,garden,,,,,
leisure,park,39.8753241,116.3686866,garden,,,,,
leisure,park,39.8751134,116.3686093,garden,,,,,
leisure,park,39.875818,116.3685938,garden,,,,,
leisure,park,39.9183573,116.1485563,garden,,,,,
leisure,park,39.9160171,116.1487562,garden,,,,,
leisure,park,39.9084625,116.1515889,garden,,,,,
leisure,park,39.9089457,116.1516049,garden,,,,,
leisure,park,39.9118073,116.1515461,garden,,,,,
leisure,park,39.9107114,116.1468521,garden,,,,,
leisure,park,39.8779724,116.4249596,,,,,,
leisure,park,39.8796959,116.4259487,,,,,,
leisure,park,39.8795769,116.4241867,,,,,,
leisure,park,39.8794536,116.4175882,park,,,,,
leisure,park,39.8711059,116.4086336,park,,,,,
leisure,park,39.9102327,116.1995094,park,晋元庄林带,,,,
leisure,park,39.9347101,116.1774386,park,中关村科技园绿地,,,,
leisure,park,39.8922987,116.2246582,park,吴家村路精品绿地,,,,
leisure,park,39.9466101,116.1923444,park,八大处路绿化景观,,,,
leisure,park,39.8693672,116.3943416,park,永定门桃园公园,,,,
leisure,park,39.9806442,116.3733129,park,祁家豁子街头绿地,,,,
leisure,park,40.0109585,116.5245507,park,,,,,
leisure,park,39.8770758,116.4917683,park,,,,,
leisure,park,39.8290205,116.5398297,park,,,,,
leisure,park,39.7966088,116.1274716,park,,,,,
leisure,park,39.7984941,116.0954465,park,怪村亲子动物园,,,,
leisure,park,39.8038252,116.3077095,park,,,,,
leisure,park,39.9520491,116.0914555,park,京门铁路遗址公园,,,,
leisure,park,39.9143753,116.0838959,park,,,,,
leisure,park,39.8925403,116.108887,park,石门营运动公园,,,,
leisure,park,39.9057019,116.1615166,park,,,,,
leisure,park,39.9094536,116.1769353,park,,,,,
leisure,park,39.9198248,116.1953809,park,,,,,
leisure,park,39.9231119,116.2109682,park,宝山公园,,,,
leisure,park,40.0841016,116.3474902,park,,,,,
leisure,park,39.9333162,116.2008348,park,,,,,
leisure,park,39.7777557,116.372988,park,北京国际露营公园,,,,
leisure,park,39.9690252,116.414231,park,,,,,
leisure,park,39.9713756,116.4269944,park,,,,,
leisure,park,40.0716857,116.2581413,park,飞行控制中心大楼广场,,,,
leisure,park,39.9259267,116.3924685,garden,,,,,
leisure,park,39.8358165,116.3139245,park,,,,,
leisure,park,39.8346698,116.3103526,park,,,,,
leisure,park,39.9525136,116.6539179,park,,,,,
leisure,park,39.9608969,116.6627855,park,,,,,
leisure,park,39.9783773,116.6464745,park,,,,,
leisure,park,39.828581,116.3073644,park,,,,,
leisure,park,39.8282114,116.3107118,park,,,,,
leisure,park,39.864245,116.2261505,park,,,,,
leisure,park,39.8601263,116.2292937,park,,,,,
leisure,park,39.8584577,116.2322785,park,,,,,
leisure,park,39.9450593,116.1963741,park,,,,,
leisure,park,39.7642087,116.4268363,park,,,,,
leisure,park,39.7637531,116.4306685,park,,,,,
leisure,park,39.7625317,116.4335822,park,,,,,
leisure,park,39.8612981,116.5621924,park,,,,,
leisure,park,39.9472538,116.4348644,park,,,,,
leisure,park,39.9224702,116.3666614,park,,,,,
leisure,park,39.9269943,116.4260245,park,东四奥林匹克社区公园,,,,
leisure,park,40.121886,116.2061615,park,浮青园,,,,
leisure,park,39.8390668,116.3496807,park,,,,,
leisure,park,39.8402694,116.3496741,park,,,,,
leisure,park,39.8419603,116.3493531,park,,,,,
leisure,park,40.0805052,116.3040898,park,,,,,
leisure,park,40.1219024,116.2083621,park,,,,,
leisure,park,39.8447886,116.3472267,park,,,,,
leisure,park,40.0781674,116.3482938,park,京都儿童医院南侧公园,,,,
leisure,park,40.0904365,116.3691827,park,,,,,
leisure,park,40.0463558,116.2426609,park,百旺公园西区,,,,
leisure,park,40.0447719,116.24886,park,,,,,
leisure,park,40.0410624,116.2555273,park,,,,,
leisure,park,40.0292547,116.288701,park,厢黄旗公园,,,,
leisure,park,39.9825999,116.2422301,park,茶棚口袋公园,,,,
leisure,park,39.8158241,116.4078292,park,,,,,
leisure,park,40.0469597,116.2071787,park,,,,,
leisure,park,40.0462422,116.219846,park,,,,,
leisure,park,39.9890796,116.3088288,garden,,,,,
leisure,park,39.9892237,116.3081093,garden,,,,,
leisure,park,39.989135,116.3085693,garden,,,,,
